Name,OtherName,Elevation,Latitude,Longitude
Kuna Peak,,13002,37.812906,-119.208275
Petit Griffon,,13040,37.391407,-118.788394
Mount Madonna,,1897,37.012239,-121.704982
Mount Johnson,,3465,36.610947,-121.314714
Mount Defiance,,2657,36.467003,-121.172532
North Chalone Peak,,3304,36.447637,-121.195678
South Chalone Peak,,3269,36.436847,-121.185864
Miller Mountain,,4341,36.319057,-121.645681
Junipero Serra Peak,,5862,36.145661,-121.419117
Cone Peak,,5155,36.052042,-121.496345
Williams Hill,,2780,35.951745,-121.001837
Silver Peak,,3590,35.847925,-121.358994
Pine Mountain,,3594,35.690148,-121.094601
Palo Escrito Peak,,4467,36.405236,-121.491968
Discovery Peak,Valpe Ridge-Rose Flat,3840,37.5121,-121.699374
Boardman North,Alsan Peak,3626,37.489685,-121.469336
Mount Boardman,,3618,37.481178,-121.471868
Eylar Mountain,,4089,37.477676,-121.556072
Mount Hamilton,,4213,37.341697,-121.64312
Copernicus Peak,,4360,37.34675,-121.63008
Mount Stakes,,3804,37.32253,-121.408568
Crevison Peak,,2103,37.191014,-121.189092
Mariposa Peak,,3448,36.957135,-121.211573
Laveaga Peak,,3801,36.890467,-121.17758
Potrero Peak,,3742,36.856579,-121.150079
Ortigalita Peak,,3304,36.794498,-120.923246
Sugarloaf,,2840,36.709717,-121.118213
Ciervo Mountain,,3391,36.473486,-120.579929
Pine Mountain,,3814,36.454448,-120.919309
San Carlos Peak,,4845,36.391414,-120.656932
San Benito Mountain,,5241,36.36967,-120.644609
Hepsedam Peak,,4487,36.314683,-120.824705
Black Mountain,,3640,36.30468,-120.403338
Smith Mountain,,3947,36.078951,-120.595969
Castle Mountain,,4343,35.939043,-120.340382
Table Mountain,King Benchmark,3473,35.906,-120.275967
Orchard Peak,,3125,35.738196,-120.133848
Lopez Mountain,,2868,35.301392,-120.578535
Machesna Mountain,,4063,35.278717,-120.230968
Hi Mountain,,3198,35.259932,-120.425281
Garcia Mountain,,3171,35.248652,-120.30964
Saddle Peak,,1819,35.222312,-120.793077
Pine Ridge,,3200,35.208233,-120.28091
Caliente Mountain,,5106,35.036309,-119.760252
Freeborn Mountain,,3312,35.285271,-120.054174
Timber Peak,,4764,35.014384,-120.013307
Tepusquet Peak,,3253,34.910118,-120.186637
Peak Mountain,,5843,34.90209,-119.858722
McPherson Peak,,5749,34.888614,-119.813274
Fox Mountain,,5167,34.813618,-119.60008
Samon Peak,,6227,34.734853,-119.646072
San Rafael Mountain,,6593,34.710922,-119.814015
McKinley Mountain,,6200,34.702399,-119.845413
Big Pine Mountain,,6800,34.697288,-119.654347
Big Pine Mountain-West Peak,,6490,34.695654,-119.677373
Madulce Peak,,6536,34.690957,-119.591151
Santa Cruz Peak,,5570,34.66917,-119.811809
Tranquillon Mountain,,2159,34.582795,-120.561371
Santa Ynez Peak,,4298,34.526966,-119.978554
Divide Peak,,4707,34.47685,-119.444461
Eagle Rest Peak,,6005,34.907428,-119.133857
Brush Mountain,,7048,34.884932,-119.224965
Antimony Peak,,6848,34.877077,-119.112268
San Emigdio Mountain,,7492,34.873269,-119.178899
Tecuya Mountain,,7160,34.842489,-118.981718
Cerro Noroeste,,8280,34.830964,-119.203515
Grouse Mountain,,8582,34.814868,-119.183088
Sawmill Mountain,,8818,34.813361,-119.167286
Mount Pinos,,8831,34.812831,-119.145413
Frazier Mountain,,8000,34.775012,-118.969141
Cuyama Peak,,5880,34.754082,-119.475786
Lizard Head,,5320,34.69911,-119.479853
Hildreth Peak,,5065,34.600229,-119.551812
Ortega Hill,,5317,34.573804,-119.355258
Ortega Peak,,5854,34.566458,-119.332464
Monte Arido-East Slope,,5800,34.53876,-119.462796
Monte Arido,,6010,34.539345,-119.466778
Old Man Mountain,,5538,34.516964,-119.453297
Lockwood Peak,Lockwood Point,6261,34.709578,-119.069877
San Guillermo Mountain,,6606,34.695391,-119.147894
Reyes Peak,,7514,34.630915,-119.281622
Haddock Mountain,,7431,34.623509,-119.240723
Thorn Point,,6920,34.606425,-119.127655
Chief Peak,,5560,34.510498,-119.167995
Alamo Mountain,,7367,34.667725,-118.961154
Black Mountain,,6202,34.654217,-118.861747
Snowy Peak,,6532,34.649411,-118.888798
Sewart Mountain,,6841,34.640643,-118.907067
McDonald Peak,,6870,34.633429,-118.940549
White Mountain,,6250,34.631297,-118.847935
San Rafael Peak,,6640,34.623888,-119.00185
Cobblestone Mountain,,6733,34.608939,-118.867849
Hines Peak,,6716,34.510785,-119.075593
Oat Mountain,,3747,34.329849,-118.601031
Liebre Mountain,,5760,34.716612,-118.664737
Burnt Peak,,5788,34.68292,-118.576855
Sawtooth Mountain,,5200,34.660794,-118.552318
Old Mount Emma,,5063,34.476073,-118.052612
Mount Emma,,5273,34.460596,-118.069142
Cole Point,,5604,34.421672,-118.072064
Bare Mountain,,6388,34.398256,-117.991848
Pleasant View Ridge,UTM 165055,7983,34.390009,-117.90935
Pallett Mountain,,7760,34.385761,-117.885936
Will Thrall Peak,,7845,34.384496,-117.902622
Pacifico Mountain,,7124,34.381937,-118.034524
Mount Gleason,,6520,34.376513,-118.177494
Granite Mountain,,6600,34.37139,-118.07111
Winston Ridge,,7003,34.371299,-117.936004
Winston Peak,,7502,34.358509,-117.935784
Rabbit Peak,,5307,34.357102,-118.095165
Mount Akawie,,7283,34.352723,-117.91701
Round Top,,6316,34.352687,-118.067894
Mount Hillyer,UTM 62007,6200,34.345451,-118.020658
Iron Mountain,,5636,34.348797,-118.22917
Kratka Ridge,,7515,34.346827,-117.899299
Iron Mountain,,5040,34.339044,-118.091305
Waterman Mountain,,8038,34.336505,-117.936817
Condor Peak,,5440,34.325408,-118.219526
Twin Peaks,,7761,34.316038,-117.926505
Fox Mountain,,5033,34.314371,-118.199079
Mount Mooney,,5840,34.305845,-118.007501
Vetter Mountain,,5908,34.297141,-118.02864
Josephine Peak,,5558,34.285605,-118.153859
Strawberry Peak,,6164,34.283583,-118.120517
Barley Flats,,5600,34.276115,-118.072274
Mount Sally,,5408,34.27235,-118.014381
Mount Lawlor,,5957,34.270793,-118.104011
Mount Lukens,,5074,34.269035,-118.238961
Mount Deception,,5796,34.248989,-118.114658
Mount Disappointment,,5960,34.246585,-118.10499
San Gabriel Peak,,6161,34.243312,-118.098617
Mount Markham,,5742,34.236829,-118.099182
Occidental Peak,,5732,34.235023,-118.083699
Mount Lowe,,5603,34.232068,-118.106206
Mount Wilson,,5710,34.223722,-118.061675
Mount Harvard,,5441,34.21324,-118.062377
Monrovia Peak,,5409,34.213282,-117.969666
Mount Hollywood,,1625,34.128139,-118.301182
San Vicente Mountain,,1961,34.128667,-118.512833
Sandstone Peak,,3111,34.120429,-118.931994
Topanga Lookout,,2469,34.092103,-118.636069
Castro Peak,,2824,34.085709,-118.785842
Green Mountain,,817,34.039551,-120.386506
San Miguel Hill,,831,34.032937,-120.36424
Devils Peak,Mount Diablo,2450,34.029201,-119.784428
Sierra Blanca,,1523,33.980239,-119.820632
Black Mountain,,1298,33.978753,-120.07885
Soledad Peak,,1589,33.945307,-120.117635
Signal Hill,,634,33.472047,-119.041216
Mount Orizaba,,2125,33.375136,-118.419599
Pip-squeak Spire,,13268,37.375318,-118.773513
Turner Mountain,,6893,40.298903,-121.616929
Barkley Mountain,,4473,40.161011,-121.689913
Barkley Mountain-West Slope,,4320,40.160264,-121.697961
Colby Mountain,,6001,40.148887,-121.525225
Butte County High Point,,7120,40.125857,-121.404824
Mount Pleasant,,7120,39.962786,-121.172491
Bald Eagle Mountain,,7183,39.938193,-121.235856
Kettle Rock,,7820,40.140971,-120.725767
Mount Ingalls,,8372,39.994141,-120.62745
Dixie Mountain,,8327,39.938864,-120.285348
Smith Peak,,7693,39.867357,-120.530538
Thompson Peak,,7795,40.261403,-120.55817
Mount Washington,,7369,39.725547,-120.713145
Mount Elwell,,7818,39.70827,-120.689159
Bunker Hill,,6967,39.665788,-120.834173
Yuba County High Point,Sugar Pine Peak,4825,39.607643,-121.015194
Mount Lola-North Ridge Peak,Mount Lulu,8844,39.45003,-120.363919
Mount Lola,,9148,39.432952,-120.365117
Black Buttes,,8028,39.395278,-120.557641
Castle Peak,,9103,39.365498,-120.349208
Andesite Peak,,8219,39.351113,-120.366762
Andesite Ridge-South Peak,,7605,39.342418,-120.351806
Beckwourth Peak,,7252,39.773439,-120.432409
Babbitt Peak,,8760,39.602544,-120.105706
Sardine Peak,,8135,39.540205,-120.187861
Crows Nest,,7896,39.297067,-120.350158
Mount Disney,,7953,39.294652,-120.340815
Anderson Peak,,8683,39.25911,-120.297177
Mount Pluto,,8617,39.241524,-120.140154
Needle Peak,,8971,39.200557,-120.301041
Granite Chief,,9006,39.198239,-120.287064
Squaw Peak,,8885,39.180667,-120.269674
Twin Peaks,,8878,39.112419,-120.231647
Barker Peak,,8166,39.07949,-120.239043
Lost Corner Mountain,,8261,39.013804,-120.204319
Tells Peak,,8872,38.9599,-120.254641
Dicks Peak,,9974,38.900614,-120.151105
Pyramid Peak,,9983,38.845106,-120.158081
Mount Rose,,10776,39.343715,-119.917874
Snow Valley Peak,,9214,39.15396,-119.88323
East Peak,,9591,38.94251,-119.907349
Monument Peak,,10067,38.922804,-119.897655
Freel Peak,,10881,38.857499,-119.900095
Hawkins Peak,,10024,38.738566,-119.872452
Thunder Mountain,,9410,38.676733,-120.08537
Winnemucca Lake Southeast,,9800,38.663872,-119.98569
Round Top,,10381,38.663609,-120.000647
Carpenter Benchmark,,828,38.649206,-121.099632
Raymond Peak,,10014,38.603771,-119.833341
Mokelumne Peak,,9334,38.53815,-120.094455
Highland Peak,,10936,38.543691,-119.755528
Mount Reba,,8755,38.507759,-120.028814
Corral Hollow Hill,,8170,38.477945,-120.073082
Sonora Peak,,11459,38.35385,-119.6355
Blue Mountain,,6071,38.342103,-120.364973
Leavitt Peak,,11569,38.286182,-119.651249
Granite Dome,,10320,38.21535,-119.746069
Hells Mountain,,6998,38.073322,-119.916833
Rickey Peak,,10126,38.263691,-119.38123
Eagle Peak,,11847,38.179872,-119.408581
Tower Peak,,11755,38.144524,-119.547713
Crown Point,,11346,38.110985,-119.457565
Wheeler Peak,,8990,38.100387,-119.731943
Matterhorn Peak,,12279,38.093039,-119.3817
Richardson Peak,,9877,38.083839,-119.692575
Dunderberg Peak,Castle Peak Benchmark,12374,38.064543,-119.274325
Piute Mountain,,10541,38.033521,-119.547978
Excelsior Mountain,,12446,38.024511,-119.305349
Pettit Peak,,10788,37.985764,-119.480509
Mount Conness,,12590,37.966955,-119.32155
Mono Dome,,10622,37.959662,-119.171946
Rancheria Mountain,,8960,37.959112,-119.608069
Lembert Dome,,9450,37.881876,-119.347121
Bald Mountain,,7261,37.855232,-119.790285
Smith Peak,,7751,37.926718,-119.735067
Tuolumne Peak,,10845,37.875184,-119.484771
Mount Hoffmann,,10850,37.846842,-119.510591
Clouds Rest,,9926,37.767833,-119.489277
North Dome,,7542,37.756928,-119.560096
Half Dome,,8840,37.746093,-119.533022
El Capitan,,7569,37.734207,-119.637651
Sentinel Dome,,8122,37.723017,-119.584297
Fairview Dome,,9723,37.871373,-119.403879
Medlicott Dome,,9880,37.856151,-119.4239
Cathedral Peak,,10911,37.847808,-119.405606
Parsons Peak-Northwest Ridge,,12040,37.778175,-119.309488
Parsons Peak,,12147,37.776934,-119.307748
Mount Florence,,12561,37.739821,-119.316064
Mount Dana,,13057,37.899812,-119.22117
Mount Gibbs,,12773,37.877054,-119.21181
Mammoth Peak,,12106,37.855394,-119.263505
Koip Peak,,12962,37.813634,-119.201831
Donohue Peak,,12023,37.775086,-119.230463
Banner Peak,,12936,37.69657,-119.19466
Mount Ritter,,13143,37.689058,-119.199557
Clyde Minaret,,12264,37.660389,-119.173956
Mount Maclure,,12880,37.743589,-119.280453
Mount Lyell,,13114,37.739392,-119.271615
Rodgers Peak,,12978,37.724971,-119.257506
Mount Ansel Adams,,11760,37.697892,-119.281624
Foerster Peak,,12057,37.689947,-119.290819
Long Mountain,,11502,37.667267,-119.295106
Sadler Peak,,10567,37.638684,-119.273182
Gale Peak,,10680,37.567953,-119.387125
Sing Peak,,10520,37.553864,-119.387437
Mount Starr King,,9092,37.70276,-119.517553
Mount Clark,,11522,37.69635,-119.428546
Red Peak,,11699,37.65382,-119.409427
Merced Peak,,11726,37.634897,-119.394567
Triple Divide Peak,,11611,37.631719,-119.370262
Buena Vista Peak,,9709,37.594091,-119.517716
Wawona Dome,,6897,37.556019,-119.613177
Devil Peak,,6989,37.529249,-119.740533
Crow Peak,,6440,37.508593,-119.736021
Shuteye Peak,,8351,37.349457,-119.428206
Long Valley Caldera,,7923,37.720238,-118.88478
Mammoth Mountain,,11030,37.630496,-119.032559
Mount Morrison,,12270,37.561394,-118.858424
Mount Morgan,,12992,37.511345,-118.779858
Red Slate Mountain,,13123,37.507482,-118.869275
Mount Stanford,,12838,37.489458,-118.796467
Red and White Mountain,,12816,37.479673,-118.857323
Balloon Dome,,6879,37.464729,-119.226764
Kaiser Peak,,10310,37.294206,-119.185585
Musick Mountain,,6801,37.169958,-119.30878
Three Sisters,,10612,37.141215,-119.060856
Eagle Peak,,10318,37.088586,-119.016612
Patterson Mountain,,8167,36.974749,-119.056461
Mount Starr,,12840,37.426795,-118.766146
Ruby Peak,,13188,37.408898,-118.782256
Mount Morgan,,13748,37.405236,-118.733265
Broken Finger Peak,,13080,37.404524,-118.716751
Mount Mills,,13451,37.393979,-118.789993
Mount Abbot,,13704,37.386377,-118.784931
Recess Peak,,12813,37.382485,-118.855724
Mount Dade,,13600,37.381963,-118.779495
Mount Gabb,,13741,37.376857,-118.802492
Bear Creek Spire,,13720,37.368012,-118.767505
Mount Hilgard,,13361,37.360516,-118.826788
Bear Creek Spire-South Peak,,13160,37.359726,-118.768452
Mount Julius Caesar,,13200,37.356752,-118.781745
Mount Tom,,13652,37.338479,-118.657008
Feather Peak,,13240,37.325942,-118.778
Royce Peak,,13280,37.318181,-118.77096
Seven Gables,,13080,37.310858,-118.833213
Merriam Peak,,13103,37.308938,-118.765331
Basin Mountain,,13181,37.296894,-118.658368
Gemini,,12880,37.297626,-118.817982
Basin Mountain-Southwest Peak,,13240,37.291245,-118.67248
Mount Humphreys,,13986,37.27058,-118.672935
Mount Humphreys-Southeast Peak,,13360,37.2665,-118.670856
Mount Emerson,,13204,37.242587,-118.654303
Mount Henry,,12196,37.183325,-118.827265
Mount Reinstein,,12586,37.079394,-118.738354
Blackcap Mountain,,11550,37.072055,-118.793566
Pavilion Dome,,11856,37.230636,-118.809155
Mount Goethe,,13264,37.206123,-118.702112
Mount Lamarck,,13417,37.194943,-118.670641
Mount Mendel,,13710,37.174895,-118.682322
Mount Darwin,,13831,37.167128,-118.672471
Picture Peak,,13120,37.150795,-118.64922
Mount Haeckel,,13418,37.151097,-118.661025
Mount Wallace,,13377,37.14691,-118.656797
Mount Thompson,,13494,37.142988,-118.613482
Crumbly Spire,Mount Wallace-South Peak,13240,37.141179,-118.654348
Clyde Spires,,12955,37.140178,-118.648226
Mount Powell,,13364,37.138723,-118.634059
Mount Gilbert,,13106,37.136598,-118.598348
Mount Johnson,,12871,37.128501,-118.586354
Mount Goode,,13085,37.123065,-118.567961
The Hermit,,12328,37.162932,-118.718536
Mount McGee,,12944,37.138907,-118.737952
Mount Huxley,,13086,37.136094,-118.682801
Mount Fiske,,13503,37.136708,-118.667843
Mount Warlow,,13206,37.128502,-118.674625
Mount Solomons,,13034,37.106456,-118.674222
Mount Goddard,,13568,37.103548,-118.71946
Black Giant,,13330,37.102342,-118.6486
Charybdis,,13096,37.086715,-118.668219
Mount McDuffie,,13282,37.073538,-118.643972
Wheel Mountain,,12774,37.046691,-118.629378
Scylla,,12956,37.080103,-118.689724
Spanish Mountain,,10051,36.909093,-118.891464
Obelisk,,9705,36.907947,-118.853793
Finger Peak,,12404,37.029989,-118.730323
Kettle Dome,,9451,36.946981,-118.785871
Tehipite Dome,,7708,36.918776,-118.780776
Tunemah Peak,,11894,36.995382,-118.688268
Burnt Mountain,,10608,36.972247,-118.72851
Mount Agassiz,,13893,37.111931,-118.530694
Temple Crag,,12976,37.109743,-118.491239
Mount Winchell,,13775,37.104597,-118.526186
Mount Gayley,,13510,37.102912,-118.499867
Thunderbolt Peak,,14003,37.097404,-118.517255
Mount Sill,,14153,37.095968,-118.503212
North Palisade,,14242,37.09419,-118.514467
Polemonium Peak,,14080,37.093359,-118.511813
Mount Jepson,,13392,37.088879,-118.495121
Palisade Crest,,13553,37.081488,-118.489618
Norman Clyde Peak,,13855,37.074428,-118.474476
Middle Palisade,,14012,37.07021,-118.469096
The Thumb,,13356,37.071449,-118.446007
Disappointment Peak,,13917,37.067917,-118.4675
Birch Mountain,,13602,37.062766,-118.419014
Mount Bolton Brown,,13491,37.0461,-118.440937
Mount Prater,,13471,37.036763,-118.434671
Split Mountain,South Palisade,14058,37.020903,-118.422392
Vennacher Needle,,12995,36.998843,-118.474092
Cardinal Mountain,,13396,36.99948,-118.412729
Mount Ruskin,,12920,36.978497,-118.473314
Cloudripper,,13525,37.142626,-118.530622
Picture Puzzle Peak,,13280,37.127932,-118.538785
Gendarme Peak,,13252,37.126594,-118.53158
Aperture Peak,,13265,37.118132,-118.530441
Windy Peak,,8867,36.972491,-118.611172
Goodale Mountain,,12730,36.971985,-118.386292
Striped Mountain,,13179,36.965519,-118.403949
Marion Peak,,12719,36.95682,-118.522407
Mount Pinchot,,13494,36.947268,-118.40542
Mount Wynne,,13179,36.937954,-118.403007
Arrow Peak,,12959,36.928381,-118.490966
Colosseum Mountain,,12451,36.907362,-118.366853
Pyramid Peak,,12779,36.906566,-118.462097
Hogback Peak,,11080,36.876504,-118.711581
Mount Baxter,,13136,36.861513,-118.362139
Acrodectes Peak,,13182,36.860694,-118.375231
Wren Peak,,9450,36.838243,-118.792716
Mount Clarence King,,12861,36.833616,-118.446548
Diamond Peak,,13127,36.82634,-118.390288
Mount Mary Austin,,13051,36.815063,-118.362951
Black Mountain,,13291,36.809099,-118.378299
Mount Gardiner,,12907,36.806107,-118.459193
Glacier Monument,,11154,36.798381,-118.505321
Dragon Peak,,12927,36.789856,-118.37578
Mount Rixford,,12887,36.784945,-118.398926
Mount Gould,,13005,36.779954,-118.377976
Sentinel Dome,,9115,36.758857,-118.644779
Mitchell Peak,,10365,36.732248,-118.715123
Big Baldy,,8209,36.671881,-118.882482
Little Baldy,,8044,36.614456,-118.80456
Alta Peak,,11204,36.590563,-118.663388
Blue Mountain,,3204,36.550997,-119.076075
Moro Rock,,6725,36.544162,-118.764908
Ampitheater Dome,Castle Rocks High Point,9081,36.496257,-118.70241
Mount Stewart,,12200,36.569815,-118.555065
Eagle Scout Peak,,12000,36.545773,-118.561896
Mount Eisen,,12160,36.500521,-118.568677
Florence Peak,,12432,36.406147,-118.550838
The Sphinx,,9143,36.771226,-118.550416
Palmer Mountain,,11254,36.747934,-118.569228
North Guard,,13327,36.716628,-118.489935
Mount Brewer,,13570,36.708506,-118.485106
South Guard,,13232,36.693474,-118.483927
Deerhorn Mountain,,13281,36.713077,-118.410387
Mount Stanford,,13973,36.703911,-118.395807
Ericsson Crags,,13123,36.700193,-118.417283
Mount Ericsson,,13583,36.697153,-118.414492
Caltech Peak,,13832,36.688977,-118.39063
Mount Genevra,,13054,36.683374,-118.43431
Mount Jordan,,13343,36.682308,-118.449819
Thunder Mountain,,13517,36.669,-118.475768
Table Mountain,,13632,36.660519,-118.473747
Midway Mountain,,13665,36.643301,-118.48362
Milestone Mountain,,13638,36.634537,-118.484418
Centennial Peak,,13228,36.627616,-118.490225
Kern Point,,12730,36.596706,-118.444757
Triple Divide Peak,,12634,36.592881,-118.530862
Kaweah Queen,,13382,36.554709,-118.508538
Pyramidal Pinnacle,,13665,36.545368,-118.507825
Black Kaweah,,13680,36.545403,-118.515906
Koontz Pinnacle,,13600,36.544412,-118.507132
Red Spur,,13186,36.540648,-118.445213
Red Kaweah,,13720,36.539953,-118.505692
Squaretop,,13517,36.535786,-118.498391
Second Kaweah,,13661,36.533148,-118.493071
Mount Kaweah,,13802,36.526108,-118.478518
University Peak,,13589,36.748078,-118.361916
Mount Bradley,,13264,36.728617,-118.3387
Center Peak,,12730,36.721874,-118.362754
Mount Keith,,13976,36.700058,-118.343481
Junction Peak,,13888,36.691013,-118.366306
Polychrome Peak,,13018,36.672603,-118.334527
Mount Williamson,,14373,36.655936,-118.311094
Mount Tyndall,,14019,36.6556,-118.336968
Mount Tyndall-Southwest Peak,,13540,36.650762,-118.350208
Mount Versteeg,,13471,36.647586,-118.325567
Trojan Peak,,13947,36.642313,-118.315311
Mount Barnard,,13990,36.628369,-118.321564
Mount Barnard-East Peak,,13714,36.626043,-118.310792
Mount Carl Heller,,13225,36.611594,-118.298654
Tunnabora Peak,,13563,36.605085,-118.282265
The Cleaver,,13383,36.597453,-118.27474
Mount Carillon,,13553,36.592408,-118.277916
Mount Morgenson,Mount Russell-West Peak,13927,36.591603,-118.299852
Mount Russell,,14088,36.590085,-118.290796
Mount Hale,,13494,36.588007,-118.314432
Mount Young,,13176,36.581094,-118.327662
Mount Whitney,Fishermans Peak,14495,36.57855,-118.29239
Pinnacle Ridge,,13058,36.574056,-118.281653
Keeler Needle,,14239,36.575543,-118.291573
Mount Muir,,14012,36.564743,-118.291253
Lone Pine Peak,,12944,36.56187,-118.22575
Discovery Pinnacle,,13753,36.558387,-118.290302
Mount Irvine,,13780,36.55585,-118.263565
Mount Hitchcock,,13186,36.554923,-118.311861
Mount McAdie,,13799,36.551787,-118.27629
Mount Mallory,,13845,36.549018,-118.262147
Mount LeConte,,13930,36.541615,-118.25223
Mount Newcomb,,13422,36.540073,-118.293349
Mount Corcoran,,13714,36.538588,-118.2505
The Miter,,12770,36.535055,-118.264671
Mount Chamberlin,,13169,36.533734,-118.311157
Mount Pickering,,13474,36.527241,-118.291282
Mount Langley,,14026,36.523449,-118.239526
Joe Devel Peak,,13327,36.515394,-118.296643
Mount Guyot,,12300,36.508971,-118.362851
Cirque Peak,,12900,36.476939,-118.236958
Case Mountain,,6818,36.411234,-118.803207
Homers Nose,,9023,36.385043,-118.737775
Quinn Peak,,10178,36.334605,-118.589318
Dennison Mountain,,8650,36.318519,-118.746407
Sheep Mountain,,10040,36.308437,-118.625283
Moses Mountain,,9331,36.278582,-118.681038
Maggie Mountain,,10042,36.263844,-118.618614
Hatchet Peak,,3286,36.150671,-118.830072
The Needles,,8254,36.109483,-118.484686
Mule Peak,,8142,36.015943,-118.615261
Templeton Mountain,,9960,36.31477,-118.206779
Kern Peak,,11480,36.308517,-118.287613
Blackrock Mountain,,9635,36.179236,-118.278117
Monache Mountain,,9400,36.205507,-118.19648
Lookout Mountain,,9722,36.057896,-118.375724
Bald Mountain,,9382,36.019725,-118.254008
Sherman Peak,,9909,36.010202,-118.391079
Cannell Peak,,9470,35.86505,-118.361352
Cannell Point,Cannel Benchmark,8314,35.785863,-118.343186
Pilot Knob,,6200,35.72861,-118.212469
Muah Mountain,,11016,36.400517,-118.125226
Olancha Peak,,12123,36.265423,-118.118188
Ball Mountain,,9256,36.063826,-118.094094
Kennedy Peak,,7195,35.985559,-118.118259
Chimney Peak,,7994,35.86646,-118.042571
Owens Peak,,8453,35.738269,-117.997019
Mount Jenkins,,7921,35.708644,-117.992825
Morris Peak,,7215,35.690247,-117.987091
Five Fingers,,5174,35.688804,-117.909406
Tobias Peak,,8284,35.850176,-118.572606
Sunday Peak,,8295,35.782235,-118.58507
Bohna Peak,,6788,35.758347,-118.595773
Split Mountain,,6835,35.751661,-118.482283
Black Mountain,,7438,35.741693,-118.523979
Pine Mountain,,3920,35.562639,-118.76921
Pinyon Peak,,6805,35.682343,-118.089944
Onyx Peak,,5244,35.656925,-118.226652
Scodie Mountain,,7294,35.629443,-118.028214
Skinner Peak,,7120,35.566907,-118.126904
Mayan Peak,,6108,35.464266,-118.19499
Butterbredt Peak,,5997,35.383731,-118.153645
Nicolls Peak,,6070,35.619706,-118.297868
Heald Peak,,6901,35.590934,-118.309623
Bald Eagle Peak,,6181,35.544943,-118.478863
Lightner Peak,,6430,35.529417,-118.562765
Piute Lookout,,8326,35.479945,-118.359497
Breckenridge Mountain,,7560,35.451182,-118.587075
Piute Peak,,8440,35.449339,-118.388318
Sorrell Peak,,7704,35.417604,-118.289069
Cross Mountain,,5203,35.278922,-118.136734
Chuckwalla Mountain,,5029,35.272493,-118.09518
Cache Peak,,6698,35.221803,-118.250235
Bear Mountain,,6920,35.206486,-118.639498
Black Mountain,,5686,35.163222,-118.528719
Tehachapi Mountain,,7960,35.046867,-118.48479
Cummings Mountain,,7760,35.041589,-118.571466
Double Mountain,,7981,35.033254,-118.486726
Grapevine Peak,,4815,34.903037,-118.904484
State Line Peak,,7990,40.029873,-119.979398
Mission Peak,,5627,40.276278,-119.850581
Tule Peak,,8724,39.975924,-119.744207
Tohakum Peak,,8182,40.179387,-119.455121
Trinity Peak,,7337,40.232286,-118.745437
Juniper Mountain,,7474,40.234408,-119.074096
Nightingale Mountains High Point,,6942,40.044848,-119.246253
Freds Mountain,,7188,39.779072,-119.853312
Warm Springs Mountain,,6004,39.795279,-119.766614
Hungry Mountain,,5965,39.751409,-119.789416
Spanish Benchmark,,6161,39.650887,-119.769115
Curnow Range High Point,,6493,39.697277,-119.595966
Virginia Peak,,8366,39.755664,-119.461258
Juniper Peak,,7209,39.79542,-119.183253
Rattler Benchmark,,7337,39.400289,-119.529885
Mount Davidson,,7864,39.308294,-119.663526
Desert Peak,,5365,39.786145,-118.937843
Rocky 2 Benchmark,,5512,39.699424,-118.991147
Lahontan Benchmark,,5377,39.407767,-119.015152
Cleaver Peak,,6711,39.218463,-119.133382
Brown Knob,,6084,39.065266,-118.708778
Buffalo Mountain,,8206,40.222712,-118.129277
West Humboldt Range High Point,,6381,40.11599,-118.335489
Job Peak,,8785,39.583196,-118.235478
Rainbow Mountain,,4760,39.414119,-118.543903
Bunejug Mountains High Point,,4892,39.301059,-118.611501
Lava Benchmark,,4953,39.24639,-118.722927
Alkali Benchmark,,6104,39.210741,-118.537907
Blow Sand Mountains High Point,,5260,39.192407,-118.656527
Sand Springs Range High Point,,7467,39.105377,-118.349649
Mount Augusta,,9966,39.53993,-117.919605
Crown Peak,,6600,39.409333,-118.092463
Fairview Peak,,8303,39.225029,-118.152585
Bell Mountain,,7152,39.163521,-118.085534
Mount Anna,,6908,39.003279,-118.126364
Grayback Mountain,,7500,39.197422,-117.888886
Artesia Benchmark,,6915,39.028987,-119.371381
Mount Siegel,,9451,38.889564,-119.502187
Mount Wilson,,6778,38.850792,-119.220399
Desert Creek Peak,,8958,38.614075,-119.315631
East Sister,,10404,38.523362,-119.290252
Middle Sister-Northeast Ridge,,10560,38.509561,-119.292617
Middle Sister,,10854,38.50794,-119.295327
Mount Patterson,,11673,38.436643,-119.305163
Mount Grant,,11280,38.568409,-118.791119
Powell Mountain,,9527,38.327673,-118.699755
Brawley Peaks,,9520,38.251652,-118.921211
Potato Peak,,10237,38.234565,-119.086855
Mount Biedeman,,8962,38.152566,-119.068138
Glass Mountain,,11160,37.766342,-118.703809
Anchor Benchmark,,9062,38.237663,-118.683114
Anchorite Hills-Gregs Knoll,,8160,38.216018,-118.673189
Anchorite Hills-South Summit,,8810,38.153287,-118.698958
Moho Mountain,,8805,38.27961,-118.259687
Huntoon Benchmark,,8299,38.033873,-118.542134
Buckley Benchmark,,7888,38.682814,-118.550667
Mount Ferguson,,8353,38.657209,-118.160941
Pilot Peak,,9182,38.34301,-117.974093
Boundary Peak,,13140,37.84609,-118.35135
Montgomery Peak,,13441,37.838299,-118.356965
Mount Dubois,,13559,37.783365,-118.343216
White Mountain Peak,,14246,37.634144,-118.255718
Mount Barcroft,,13040,37.582263,-118.248301
Black Mountain,,9083,37.266937,-118.22532
Emigrant Peak,,6789,37.960377,-117.898902
Piper Peak,,9450,37.704288,-117.908942
Waucoba Mountain,,11123,37.021874,-118.007911
Mount Inyo,,10975,36.735229,-117.985686
Keynot Peak,,11101,36.707586,-117.962623
New York Butte,,10668,36.647932,-117.932666
Isla Guadalupe High Point,,4265,29.101567,-118.313192
Russell Peak,,6696,35.673759,-117.95803
Backus Peak,,6651,35.657301,-117.93458
Weldon Peak,,6320,35.359948,-118.289188
Topatopa Bluff,,6367,34.498673,-119.107188
Goodykoontz Peak,,7558,34.370033,-117.883504
Cerro Alto Lookout,,2624,35.414503,-120.733877
Pine Mountain,,4539,34.223456,-117.901918
Clamshell Peak,,4360,34.201576,-117.998152
Mount Bliss,,3720,34.184601,-117.950999
Silver Mountain,,3385,34.196934,-117.890592
Slide Mountain Lookout,,4631,34.632982,-118.777863
Verdugo Mountain,Verdugo Benchmark,3120,34.215199,-118.279881
Cachuma Mountain,,4696,34.726124,-119.900657
Jupiter Mountain,,4498,34.599702,-118.398048
Red Rock Mountain,,3991,34.642952,-118.639775
Little Pine Mountain,,4480,34.600579,-119.73899
Saddle Peak East,,2825,34.078252,-118.65532
Calabasas Peak,,2163,34.112038,-118.652632
Valencia Peak,,1347,35.263121,-120.872022
Mount Yale,Yale Benchmark,4760,34.204873,-118.063939
Mount Muir,Muir Peak,4688,34.215614,-118.102471
Newcomb Peak,Newcomb Benchmark,4166,34.235529,-118.015907
Mount Zion,,3575,34.214236,-118.028219
Jones Peak,,3375,34.186585,-118.052947
Echo Mountain,,3207,34.211043,-118.120529
Mission Point,,2771,34.311662,-118.533752
Nordhoff Peak,,4485,34.4983,-119.24208
Brown Mountain,,4466,34.236965,-118.146573
Mugu Peak,,1266,34.0926,-119.055101
Cathedral Peak,,3333,34.486553,-119.716788
Montecito Peak,,3214,34.471833,-119.638962
Silver Peak,,1804,33.459813,-118.568651
Santa Paula Peak,,4957,34.440291,-119.009572
Rocky Peak,,2714,34.291808,-118.636857
Gaviota Peak,,2458,34.501808,-120.198766
Mount McKinley,,4926,34.339402,-118.264681
Mendenhall Peak,,4636,34.349006,-118.313196
Simi Peak,,2403,34.204517,-118.780859
Temescal Peak,,2126,34.102268,-118.553762
Tri Peaks,,3000,34.122179,-118.950192
Exchange Peak,,2950,34.114789,-118.946004
Big Dome,,2900,34.124807,-118.947069
Boney Peak,,2825,34.116289,-118.940351
Inspiration Point,,2800,34.116491,-118.942824
Hastings Peak,,4000,34.194541,-118.062393
Spanish Needle,,7841,35.771443,-118.00152
Lamont Peak,,7429,35.792133,-118.043625
Sawtooth Peak,,8000,35.823218,-117.998624
Rockhouse Peak,,8360,35.900959,-118.228508
Taylor Dome,,8802,35.856428,-118.303325
Sirretta Peak,,9977,35.924369,-118.333203
Crag Peak,,9480,36.115746,-118.152001
Smith Mountain,,9520,36.127359,-118.224384
Angora Mountain,,10198,36.264439,-118.446059
Coyote Peaks,,10892,36.31207,-118.447272
North Maggie Mountain,,10234,36.276837,-118.638009
Vandever Mountain,,11947,36.398334,-118.581255
Sawtooth Peak,,12343,36.455426,-118.555346
Needham Mountain,,12520,36.45446,-118.537306
Cartago Peak,,10480,36.324639,-118.102197
Thor Peak,,12306,36.576741,-118.265639
Mount Silliman,,11188,36.643578,-118.697095
Lippincott Mountain,,12265,36.52146,-118.563009
Lion Rock,,12360,36.582434,-118.542072
Picket Guard Peak,,12303,36.576597,-118.473093
Glacier Ridge,,12360,36.617635,-118.558892
Whaleback,,11717,36.630361,-118.531443
East Vidette,,12356,36.744008,-118.400568
West Vidette,,12533,36.733889,-118.419752
Independence Peak,,11742,36.761204,-118.33194
Kearsarge Peak,,12615,36.789471,-118.34712
Mount Bago,,11870,36.770143,-118.438124
Mount Cotter,,12713,36.818865,-118.441879
Mount Perkins,,12566,36.927215,-118.38149
State Peak,,12620,36.93201,-118.545444
Goat Mountain,,12207,36.869431,-118.57429
Kennedy Mountain,,11433,36.879025,-118.668292
Mount Harrington,,11009,36.870029,-118.733599
Mount Tinemaha,,12520,37.0363,-118.396489
Observation Peak,,12362,37.02324,-118.523709
Giraud Peak,,12608,37.077397,-118.564459
Devils Crags,,12400,37.038109,-118.612455
Emerald Peak,,12546,37.165383,-118.763777
Four Gables,,12720,37.305634,-118.694635
Pilot Knob,,12245,37.273431,-118.757278
Mount Senger,,12286,37.277837,-118.858489
Mount Hooper,,12349,37.292408,-118.894949
Silver Peak,,11878,37.46967,-119.021318
Mount Izaak Walton,,12077,37.47003,-118.889982
Mount Baldwin,,12598,37.532161,-118.851244
Bloody Mountain,,12552,37.560537,-118.906954
Iron Mountain,,11148,37.611652,-119.164527
Mount Davis,,12303,37.714942,-119.219607
Electra Peak,,12442,37.705081,-119.260247
San Joaquin Mountain,,11549,37.718667,-119.105771
Gray Peak,,11573,37.673608,-119.418602
Vogelsang Peak,,11493,37.777283,-119.349531
North Peak,,12242,37.982258,-119.314682
Virginia Peak,,12001,38.06588,-119.357976
Whorl Mountain,,12033,38.074048,-119.383322
Volunteer Peak,,10481,38.006106,-119.488292
Black Hawk Mountain,,10348,38.206144,-119.708893
Stanislaus Peak,,11233,38.384113,-119.667104
Disaster Peak,,10047,38.448681,-119.733664
Mount Tallac,,9735,38.906018,-120.099011
Tinker Knob,,8949,39.244787,-120.285079
English Mountain,,8373,39.446525,-120.551243
Sierra Buttes Lookout,,8590,39.593606,-120.646997
Chocolate Peak,,11682,37.145489,-118.549848
Mount Marsh,,13549,36.554735,-118.27822
Cerro Chichi de Esther,,3281,28.992526,-118.271942
Mocho Peak North,,3672,37.463087,-121.491707
Ericsson Crag #2,,13058,36.702097,-118.417077
Table Mountain-South Peak,,13612,36.651552,-118.480134
Mount Warren,,12327,37.989772,-119.223497
Twin Peaks,,12323,38.083553,-119.358775
Milestone Mountain-East Peak,,13547,36.630286,-118.474815
Slate Mountain,,9302,36.083378,-118.576278
Adams Peak,,8197,39.910721,-120.10048
Butt Mountain,,7870,40.217586,-121.38627
Gregorys Monument-South Peak,,13845,36.696589,-118.39202
Keddie Peak,,7499,40.216148,-120.968841
Forester Pass West,,13720,36.697296,-118.378726
Peak 3984,Peak 13071,13071,36.83522,-118.389791
Mount Tom Ross,,13253,37.178536,-118.664087
Matthes Peak,,12960,37.221713,-118.750812
Mount Hansen,,12975,37.073785,-118.692087
Peak 12964,,12964,37.116013,-118.722365
Bilko Pinnacle,,13386,36.534422,-118.497376
Kern Ridge,,13186,36.619928,-118.465422
Peak 4049,Peak 13284,13284,36.53311,-118.455604
Sharktooth,,13648,36.537413,-118.249306
Mount Corcoran-South Peak,,13648,36.535146,-118.248854
Mount Corcoran-Far South Peak,,13619,36.532903,-118.248164
Wheeler Peak,,13000,37.415104,-118.697777
Point Powell,,13360,37.140542,-118.625562
Ski Mountaineers Peak,,13280,37.147842,-118.61027
Vagabond Peak,,13374,37.149668,-118.530401
Checkered Demon,,13121,37.258857,-118.660364
Aiguille Junior,,13927,36.568141,-118.291754
S'brutal Tower,,13865,36.566637,-118.292247
Aiguille du Paquoir,,13976,36.57075,-118.291421
Aiguille Extra,,14042,36.572163,-118.29002
Crooks Peak,Day Needle,14173,36.574556,-118.290572
Third Needle,,14108,36.573359,-118.28985
Junction Peak-Southeast Peak,,13517,36.6871,-118.361828
Mount Robinson,,12967,37.117836,-118.517326
Starlight Peak,,14200,37.094982,-118.515057
Barrett Peak,Palisade Peak 13962,13962,37.090457,-118.507077
Balcony Peak,,13845,37.067426,-118.466382
Mount Williams,,13622,37.075127,-118.479123
Peak 3994,Peak 13104,13104,37.083474,-118.439282
Ed Lane Peak,,13576,37.060443,-118.436318
Split Mountain-South Peak,,13714,37.01373,-118.424885
Michaels Pinnacle,,13680,36.538738,-118.504705
Lawson Peak,,13120,36.560152,-118.51443
White Mountains Peak 13615,,13615,37.657144,-118.268004
White Mountains Peak 13908,,13908,37.645547,-118.256962
Mount Lamarck-North Peak,,13464,37.196769,-118.673694
Chews Ridge,,5045,36.312201,-121.568204
McKittrick Summit,,4332,35.290766,-119.763988
Gregorys Monument,,13911,36.701913,-118.395848
Bald Mountain,,2614,34.531223,-120.090914
South Sister,,11360,38.482923,-119.300005
Wheeler Peak,,11663,38.418705,-119.288802
Mount Patterson-Northwest Peak,,11400,38.44484,-119.314508
Inyo Peak 10414,,10414,36.682246,-117.960913
Inyo Peak 10307,,10327,36.676017,-117.930166
Inyo Peak 10192,,10192,36.66499,-117.941528
Inyo Peak 10151,,10151,36.639093,-117.918385
Squaw Peak,,10358,37.053,-118.0173
Inyo Peak 3341,,10961,36.9593,-118.0352
Glass Mountain Ridge,,10840,37.755519,-118.69724
Piute Mountain,,12560,37.537939,-118.232938
Sheep Mountain,,12497,37.527678,-118.218083
Campito Mountain,,11560,37.498663,-118.201462
County Line Hill,,11240,37.474695,-118.184093
Blanco Mountain,,11280,37.46605,-118.163419
White Mountains Peak 10920,,10920,37.438955,-118.196465
White Mountains Radio Facility,,10840,37.411377,-118.186105
Mexican Mine Peak,,10640,37.378108,-118.177829
Mount Hogue,,12751,37.731708,-118.305213
East Headley Peak,,12751,37.687778,-118.279252
Headley Peak,,12676,37.687927,-118.286637
Bald Mountain,,9544,38.534406,-119.115337
Petersen Mountains High Point,,7841,39.795997,-119.976176
Miller Mountain,,8729,38.0651,-118.191504
Peavine Peak,,8266,39.586846,-119.932083
Garfield Hills High Point,,8085,38.443164,-118.245601
Cotton Benchmark,,7823,39.97411,-118.032562
Dogskin Mountain,,7487,39.892333,-119.790554
El Montanon,,1808,34.018052,-119.574822
KT-22,,8070,39.18302,-120.241808
Hawkins Peak,,2680,36.488139,-121.19727
Thirst Benchmark,,1965,32.884013,-118.45074
Well 2 Benchmark,,761,32.976496,-118.551895
Summit Peak 2,,930,34.01097,-119.4283
Central Anacapa Island High Point,,325,34.003688,-119.390457
San Nicolas Island High Point,,907,33.239695,-119.505576
Saddle Peak West,,2805,34.075863,-118.658867
Shanghai Creek Peak,,7657,40.199975,-121.39945
Black Mountain,,3951,37.437281,-121.700977
Chemise Ridge,,3888,36.619181,-121.068717
Center Peak,,4536,36.202304,-120.623609
Pinyon Peak,,5264,36.168676,-121.381234
Alder Peak,,3744,35.884717,-121.369693
Miranda Pine Mountain,,4061,35.036472,-120.036953
Black Mountain,,4345,35.944565,-120.30867
Pine Hill,,2059,38.719317,-120.990461
Bald Mountain,,4592,38.903963,-120.705002
San Pedro Hill,,1460,33.746629,-118.336118
Knob 2882,,2882,34.475059,-119.674496
Goodale Mountain-East Ridge,,11348,36.970169,-118.366137
Peak 1484,,1484,33.98255,-119.73769
West Point 2 Benchmark,,673,33.472391,-118.597241
Peak 8837,,8837,35.839604,-118.350522
Peak 8443,,8443,35.811422,-118.344914
Ribbon Rock,Fish Benchmark,782,33.442022,-118.571047
Rattlesnake Point,Lucas Benchmark,2168,39.469622,-121.408929
Peak 950,,950,33.969478,-119.723761
Bear Mountain,,2893,38.019439,-120.58411
Bloomer Hill,,3005,39.651872,-121.462786
Three Peaks,,2660,35.802022,-120.166603
Chitterden Ridge,,2780,39.418231,-121.277392
Taylor Ridge,,3120,37.548798,-121.502141
Elder Hill,,1340,37.626096,-121.454899
Gaylor Peak,,11004,37.918864,-119.265444
Henrietta Peak,,3626,36.905092,-121.233455
Thunder Mountain-West Peak,,9408,38.674287,-120.090966
Humboldt Peak,,7087,40.150733,-121.429834
Liberty Cap,,7076,37.728533,-119.532556
Mount Givens,,10648,37.2789,-119.0554
The Jumpoff,,13480,37.812869,-118.352314
Cold Benchmark,Reed Mountain,11040,37.395244,-118.173279
Panum Crater,,7040,37.929782,-119.044515
Ophir Hill,,7782,39.31855,-119.669961
Mount Bullion,,7682,39.304427,-119.672322
Butler Peak,,7520,39.298356,-119.671378
Columbine Peak,,12662,37.089313,-118.541605
The Hunchback,,12311,37.172998,-118.518602
Hurd Peak,,12237,37.140827,-118.566171
Mount Shakspere,,12174,37.036767,-118.532499
Munger Peak,,12040,36.874312,-118.579769
Rainbow Mountain,,12043,36.424001,-118.549888
Amelia Earhart Peak,,11974,37.785652,-119.288294
Red Mountain,,11963,37.149813,-118.80116
Laurel Mountain,,11811,37.580263,-118.891296
Table Mountain,,11711,37.185467,-118.582011
Trail Peak,,11605,36.427557,-118.190601
Tioga Peak,,11526,37.949441,-119.246376
Two Teats,,11352,37.712133,-119.09997
Matthes Crest,,10918,37.823719,-119.397102
Carson Peak,,10892,37.747631,-119.124329
Unicorn Peak,,10823,37.845708,-119.381961
Regulation Peak,,10560,37.98774,-119.488229
Madera Peak,,10509,37.537581,-119.374413
Wonoga Peak,,10371,36.482683,-118.117968
Redtop,,9973,37.546077,-119.403017
Schaeffer Mountain,,9320,36.071039,-118.395583
Indian Head,,9000,36.268075,-118.283813
Deer Mountain,,8727,37.698031,-119.012876
Indian Rock,,8522,37.782714,-119.55139
Liebel Peak,,8035,35.507238,-118.398219
Dome Rock,,7221,36.066821,-118.531093
Hatchet Peak,,6416,35.941199,-118.656159
Cold Springs Peak,,6153,35.932001,-118.649291
Gold Peak,,5963,35.4447,-118.153
Santa Ynez Mountains High Point,,4864,34.479585,-119.431854
Lookout Peak,,8480,36.773091,-118.716017
Paradise Peak,,9362,36.47719,-118.698118
Kettle Benchmark,,7840,40.146427,-120.720691
Diamond Mountain,,7738,40.312607,-120.693886
Bodie Mountain,,10168,38.22694,-119.07012
Markleeville Peak,,9415,38.661349,-119.898139
Waterhouse Peak,,9497,38.776179,-119.964862
Donner Peak,,8019,39.308901,-120.312596
Mount Lincoln,,8383,39.287903,-120.328394
Walker River I.R. High Point,,6340,38.878163,-118.605364
Mount Judah,,8243,39.298561,-120.315747
Bucks Peak,,10868,37.474973,-118.140951
Indian Peak,,11297,37.691579,-118.313412
Limestone Peak,,12240,37.5305,-118.2099
Red Peak,,10121,37.4776,-118.1081
Station Peak,,10316,37.513283,-118.107881
Red Hill,,3952,35.987147,-117.918655
Trail Canyon Saddle Peak,,11325,37.867123,-118.345611
Mount Sizer,,3216,37.214011,-121.513926
Rose Peak,,3817,37.511149,-121.724759
Chocolate Mountain,Piper Mountain,7703,37.409079,-117.928117
Jobs Sister,,10823,38.86231,-119.884589
Jobs Peak,,10633,38.858165,-119.861371
Church Peak,,10601,39.352112,-119.923281
Mount Houghton,,10490,39.334048,-119.939698
The Sisters,,10153,38.662542,-120.008049
Red Lake Peak,,10063,38.71384,-119.987608
Stevens Peak,,10059,38.733422,-119.982881
Mount Price,,9975,38.864024,-120.174826
Jacks Peak,,9856,38.890407,-120.154158
Little Round Top,,9590,38.740137,-120.051738
Elephants Back,,9585,38.67847,-119.983169
Ralston Peak,,9235,38.833046,-120.10166
Ebbetts Peak,,9160,38.54771,-119.814464
Genoa Peak,,9150,39.042969,-119.88137
Echo Peak,,8895,38.856507,-120.07348
Ward Peak,,8637,39.147966,-120.245917
Scott Peak,,8289,39.157976,-120.223217
Tahoe Mountain,,7249,38.910167,-120.036044
Twin Peaks,,6971,38.882103,-120.010273
Lovers Leap,,6944,38.799321,-120.135034
Glacier Point,,7214,37.730576,-119.573629
Big Hill,,6155,38.842395,-120.407623
Sawmill Peak,,3338,39.811982,-121.558839
Big Bald Rock,,3274,39.644882,-121.34549
Bishop Peak,,1546,35.3024,-120.69777
La Cumbre Peak,,3985,34.494614,-119.71268
Alexander Peak,,4107,34.599156,-119.763272
Broadcast Peak,,4028,34.525342,-119.958947
Islay Hill,,780,35.2454,-120.6222
Great Basin-Santa Clara-Los Angeles Triple Divide,,6760,34.387292,-118.05188
Three Points Triple Divide,,6280,34.340295,-117.978322
Little Tejon,,4760,34.799464,-118.806904
Tejon Benchmark,,4872,34.803645,-118.815562
Sawmill Mountain-West Peak,,8749,34.812529,-119.170837
Paoha Island High Point,,6697,37.993115,-119.035206
Anaho Island High Point,,4377,39.95136,-119.513925
Fannette Island High Point,,6320,38.954074,-120.100516
Treasure Island High Point,,7328,38.652807,-120.121394
Fremont Peak,,3171,36.757245,-121.504175
Chumash Island High Point,,2760,34.648786,-118.766499
Beacon Hill,,1001,34.128434,-118.277329
La Jolla Peak,,1567,34.11517,-119.049219
Thimble Peak,,9805,38.662497,-120.060661
Jordan Peak,,9115,36.181621,-118.598079
Baker Point,,7754,35.852504,-118.502932
Baker Peak,,7926,35.860391,-118.52127
Bull Run Peak,,8024,35.831876,-118.576269
Peel Peak,,6788,35.805695,-118.604473
Portuguese Peak,,7914,35.791159,-118.58629
Granite Knob,,9040,36.153595,-118.225073
Manzanita Knob,,9121,36.208797,-118.308086
Jackass Peak,,9280,36.137697,-118.207702
Mount Baldy,,9271,39.278427,-120.000133
Mount Baldy-West Ridge,,9040,39.279657,-120.005475
Mount Lee,,1680,34.13462,-118.320723
Cahuenga Peak,,1820,34.13697,-118.325804
Ladyface,,2036,34.135066,-118.772981
Mount Scott,,7467,39.261865,-119.705186
Tawny Point,,12270,36.627891,-118.376174
Pickett Peak,,9118,38.756046,-119.903231
Eagle Peak,,7779,37.745996,-119.614707
Peak 12080,,12080,36.425493,-118.500714
Lone Tree Point,,1671,33.325442,-118.374039
Black Jack Mountain,,2010,33.386898,-118.401035
Tongva Peak,,2656,34.197191,-118.259121
Prison Hill,,5724,39.126571,-119.721223
Hot Springs Mountain,,5950,39.06598,-119.721333
Round Mound,,6717,38.985633,-119.950233
Deadman Point,,6992,39.111298,-119.950709
Captain Pomin Rock,,7538,39.095863,-119.923625
Duane Bliss Peak,,8658,39.080607,-119.878092
Martis Peak,,8742,39.29142,-120.03306
Little Burnt Peak,,5480,34.688604,-118.576758
Rubicon Peak,,9183,38.988575,-120.133392
Painted Lady,,12119,36.793036,-118.399555
Wotans Throne,,12730,36.566856,-118.279673
Wild Oat Mountain,,6000,38.708549,-119.538782
Oxy Hill,,867,34.128673,-118.205785
Galena Peak,,9400,38.877704,-119.503219
Fernando 2 Benchmark,,4003,34.353196,-118.418539
Castle Peak,,1550,34.200182,-118.664515
May Peak,,3948,34.352222,-118.429635
McTarnahan Hill,,6856,39.109534,-119.657599
Parker Peak,,7643,35.97233,-118.646846
Gray Hills,,5400,38.673805,-119.525157
Sugarloaf,,5933,39.214527,-119.769406
Basalt Hill,,6162,39.256872,-119.671014
Basin Peak,,9017,39.382209,-120.364204
Devils Peak,,7704,39.282565,-120.440449
Snow Mountain,,8014,39.241127,-120.463942
Mount Mildred,,8398,39.145919,-120.330314
Ellis Peak,,8740,39.068502,-120.198218
Reynolds Peak,,9680,38.579581,-119.837657
Old Man Mountain,,7789,39.370478,-120.522428
Signal Peak,,7841,39.339093,-120.535622
Silver Peak - Northeast Summit,,10800,38.567286,-119.757978
Lookout Peak,,9584,38.510693,-119.873364
Mount Fillmore,,7715,39.730226,-120.852707
Lyon Peak,,8891,39.206823,-120.315627
The Nipple,,9342,38.639941,-119.933337
Jeff Davis Peak,,9065,38.636709,-119.89666
Treasure Benchmark,,12563,37.329189,-118.7574
Railroad Ridge,,8720,39.578998,-117.893602
Haskell Peak,,8107,39.662435,-120.552805
Phipps Peak,,9234,38.95466,-120.149954
McConnell Peak,,9099,38.948377,-120.243026
Silver Peak,,8930,38.934422,-120.230567
Red Peak,,9307,38.925315,-120.221326
Wade Benchmark,,9367,38.816634,-119.842445
Stoney Ridge,,6825,40.173672,-120.489404
Sonnys Hill,,6002,40.230913,-120.474581
Flowery Peak,,6581,39.319949,-119.615951
Sugarloaf,,5921,39.307325,-119.608974
Steamboat Hills High Point,,6178,39.367037,-119.790136
Emma Peak,,6442,39.296262,-119.603381
Mount Grosh,,6351,39.281894,-119.61772
Wyleys Knob,,6260,35.536852,-118.137417
Walbrecht Peak,,6274,35.431072,-118.183677
Peak 9000,,9000,36.148805,-118.216059
Round Mountain,,9884,36.189388,-118.074136
Woollyback,,12838,36.511359,-118.20631
Owens Point,,11375,36.501824,-118.156858
Black Mountain,,7840,35.8533004,-118.248853
Hengst Peak,,11146,36.410565,-118.62162
Eagle Crest Peak,,11185,36.412298,-118.601777
White Chief Peak,,11159,36.405281,-118.597682
Cooks Peak,,6921,35.704918,-118.548418
Castle Rock,,7729,36.1773061,-118.459095
Elephant Knob,,5098,35.9981116,-118.512439
Sentinel Peak,,6139,36.015598,-118.526819
East Lamont Peak,,7475,35.788431,-118.031534
Powers Peak,,5778,35.779451,-118.405789
North Black Rock Pass Peak,,12172,36.491238,-118.555082
North Sawtooth Peak,,11885,36.462262,-118.561921
Silver Peak,,8424,39.220474,-120.246423
Jakes Peak,,9187,38.970058,-120.12291
Hoyt Mountain,,4404,34.26948,-118.177349
Lowell Hill Ridge,,5802,39.32131,-120.687388
Thompson Peak,,9340,38.796708,-119.944139
Mineral Peak,,8319,39.047085,-119.538306
Bismark Peak,,7529,39.085837,-119.568715
Robbs Peak,,6686,38.924762,-120.40359
South Camp Peak,,8866,39.060538,-119.886727
Peak 6803,,6803,34.947345,-118.590203
Liebre Twins,,6413,34.955779,-118.57338
Odell Benchmark,,5217,34.543328,-118.234735
Mount McDill,,5187,34.566282,-118.275221
Mint Benchmark,,5184,34.566819,-118.278988
Verdi Peak,,8444,39.472411,-120.039754
Crystal Peak,,8103,39.557948,-120.088263
Shamrock Hill,,6552,38.922558,-119.261098
Echo Ridge,,11168,37.834885,-119.396026
Nevada Hill,,8048,38.744913,-119.61442
McAuley Peak,,2049,34.072062,-118.72273
Mesa Peak,,1844,34.062515,-118.719227
Castle Peak,,6531,39.406068,-119.644631
Ragged Peak,,10912,37.933067,-119.353386
Sleepy Otto Peak,,7041,39.015719,-120.28316
Rocky Peak,,7082,39.349166,-119.570432
Horse Benchmark,,7163,39.355065,-119.554655
Trailmaster Peak,,12336,36.463346,-118.222916
Trimmer Peak,,9915,38.871523,-119.922895
Cook Peak,,5405,35.621721,-118.438153
Shirley Peak,,7091,35.707074,-118.560762
Unal Peak,,6838,35.72775,-118.562179
Peak 11062,,11062,36.443641,-118.129369
Peak 10920,,10920,36.446246,-118.147103
Peak 6522,,6522,35.651682,-118.056852
Peak 11620,,11620,36.445486,-118.211364
Peak 3280,Peak 10761,10761,37.508697,-118.735843
Pointless Peak,,12256,37.461199,-118.754398
Peak 11524,,11524,38.037504,-119.290201
Peak 11568,,11568,38.052734,-119.28909
Peak 1984,,1984,34.071225,-118.817321
Mount Watkins,,8500,37.782858,-119.517776
Peak 11938,,11938,37.171158,-118.585612
White Wing Mountain,,10010,37.725405,-119.046265
Reversed Peak,,9481,37.804575,-119.099426
Muriel Peak,,12937,37.218368,-118.693673
Mount Aggie,,11565,37.545768,-118.842889
McGee Mountain,,10886,37.566827,-118.811305
Red Mountain,,11467,37.522729,-118.735
Patricia Peak,,11962,37.476254,-118.754671
Mount Huntington,,12394,37.469817,-118.777315
Sugarloaf,,11024,37.184322,-118.435967
Round Mountain,,11188,37.207773,-118.43279
Chinese Peak,,8705,37.219017,-119.155699
Deer Mountain,,9400,36.149519,-118.123757
Devil Peak,Devil Benchmark,5870,34.296969,-117.995697
Peak 3240,Peak 10630,10630,37.553015,-118.877392
Sugar Loaf,,7645,38.846,-119.548888
Oreana Peak,,9316,38.864807,-119.479065
Mount No Goode,Pass Benchmark,12916,37.116116,-118.568788
College Rock,,9055,37.27141,-119.174035
Arlington Peak,,3250,34.482859,-119.71461
Leviathan Peak,,8960,38.683362,-119.61187
Maggies Peaks-South Summit,,8699,38.931472,-120.113869
Clarks Peak,,7179,40.205978,-120.514918
Glendale Peak,,1200,34.124659,-118.28783
Churchill Butte,,6030,39.339886,-119.295559
Mount Como,,9005,39.021378,-119.47394
Camiaca Peak,,11739,38.05998,-119.324254
White Mountain,,11398,38.379988,-119.614428
Whitecliff Peak,,10800,38.435587,-119.641479
Lost Cannon Peak,,11099,38.405902,-119.548764
Wells Peak,,10833,38.396549,-119.583546
Fish Valley Peak,,10571,38.434765,-119.57023
Antelope Peak,,10241,38.470189,-119.556136
Mineral Mountain,,8964,38.526469,-119.624891
Forsyth Peak,,11177,38.157523,-119.580563
Eocene Peak,,11569,38.108129,-119.41413
Blacksmith Peak,,11760,38.106804,-119.398016
Cleaver Peak,,11760,38.104905,-119.39508
Eichorn Pinnacle,,10720,37.847585,-119.406968
Echo Peak #4,,11040,37.831568,-119.403709
Echo Peak #6,,11040,37.833694,-119.402526
Echo Peak #9,,11040,37.833367,-119.400293
Eagle Rock,,6270,38.768238,-120.268579
Peak 9686,,9686,38.851674,-120.15793
Hogan Mountain,,6586,37.486028,-119.666691
Stanford Rock,,8480,39.122237,-120.20515
Blackwood Ridge,,8271,39.089934,-120.194421
Sourdough Hill,,7976,39.025785,-120.219784
Tamarack Peak,,9897,39.318363,-119.921694
Relay Peak,,10336,39.315341,-119.947014
Cracked Crag,,8782,38.869184,-120.129876
Mammoth Crest,,11483,37.567082,-118.985239
Slide Mountain,,9698,39.312718,-119.884443
Herlan Peak,,8840,39.203127,-119.910579
Middle Mountain,,8333,38.956572,-120.181632
Keiths Dome,,8646,38.859661,-120.106487
Echo Peak #7,,11040,37.833683,-119.401345
Echo Peak #5,,11120,37.833902,-119.402065
Echo Peak #2,,11080,37.833233,-119.403003
Echo Peak #3,,11160,37.832637,-119.403377
Echo Peak #1,,11120,37.833739,-119.402884
Columbia Finger,,10360,37.819514,-119.423189
Tresidder Peak,,10600,37.829718,-119.422245
Cockscomb,,11065,37.835582,-119.384599
Echo Peak #8,,11080,37.83367,-119.400105
Tenaya Peak,,10301,37.828616,-119.443301
Peak 9205,,9205,38.59162,-119.962158
Deadwood Peak,,9846,38.628594,-119.992599
Mount Agassiz,,9967,38.857659,-120.17036
Little Pine Mountain Benchmark,,4459,34.599302,-119.746771
Louse Benchmark,,6862,39.409738,-119.664416
Willson Peak,Wilson Peak,2651,37.095224,-121.435232
Cave Rock,,6560,39.046297,-119.94835
Mount Thom,,2440,34.187322,-118.256048
Rattlesnake Mountain,,5011,39.472378,-119.758229
C Hill,,5760,39.156278,-119.791102
Flint Peak,,1889,34.163435,-118.196824
Cerro Negro,,1887,34.187487,-118.207698
Rawe Peak,,8343,39.200223,-119.48111
Alpine Butte,,3259,34.63116,-117.898664
Soledad Mountain,,4190,34.982487,-118.188857
Desert Butte,,2849,35.085571,-117.939134
Mount Maddox,,9674,36.727878,-118.747144
Park Ridge Lookout,,7520,36.724335,-118.943825
Buck Rock Lookout,,8500,36.737233,-118.860655
Panoramic Point,,7526,36.753843,-118.944597
Buena Vista Peak,,7605,36.711435,-118.89679
Delilah Benchmark,,5351,36.788872,-119.118791
Delilah Lookout,,5156,36.804199,-119.117589
Puppy Dome,,8760,37.875294,-119.345598
Fletcher Peak South,,11480,37.786793,-119.33517
Mono Rock,,11554,37.4381,-118.794951
Johnson Peak,,11040,37.834984,-119.349002
Thornburg Peak,,8636,38.649745,-119.849477
Panther Peak,,9046,36.583233,-118.715876
Empire Mountain,,11550,36.467323,-118.577202
Mineral Peak,,11615,36.44682,-118.5651
Becker Peak,,8320,38.832387,-120.059795
Peak 9155,,9155,38.83008,-120.092196
Talking Mountain,,8824,38.832754,-120.069494
Point 6194,,6194,35.142301,-118.259797
Mount Lewis,,12320,37.842529,-119.189816
Peak 11600,,11600,36.613556,-118.582417
Mount Limbo,,7312,40.338844,-119.281811
Chocolate Peak,,9402,39.35328,-119.896925
Pah Rah Mountain,,8240,39.794584,-119.474348
Snowflower Mountain,Sunflower Mountain,10243,39.382399,-119.935791
Lone Mountain,,4818,39.178509,-119.760803
Dardanelles Cone,,9524,38.404707,-119.872041
Alpine Walk Peak,,9038,39.383473,-119.907188
Fremont Peak,,4199,37.559275,-120.075674
Spikes Peak,,1927,37.034728,-121.219926
Osborne Hill,,7815,38.475027,-120.019627
Mineral Peak,,2808,38.201834,-120.463457
Quartz Mountain,,1673,37.923482,-120.420284
Rushing Mountain,Big Hill Benchmark,1519,37.828531,-120.568428
Lovers Leap,,360,37.808303,-120.694284
Bald Hill,,1765,38.085392,-120.546713
Indian Hill,,440,37.668094,-120.453973
Soapstone Hill,Murphy Benchmark,2625,38.137662,-120.502467
Red Hill,,2200,38.082656,-120.486245
Bald Mountain,,2200,38.091809,-120.457363
Darby Knob,,3692,38.17124,-120.385351
Pinecrest Peak,,8440,38.229878,-119.922023
Bald Mountain,,5802,38.144818,-120.087175
Strawberry Peak,,6067,38.196674,-120.03263
Cerro Cabrillo,,911,35.352096,-120.815063
Kreyenhagen Peak,,3561,36.158806,-120.548215
Mount Bullion,,4250,37.534607,-120.030313
Doud Hill,,4155,38.212457,-120.336685
Hiram Peak,,9796,38.47795,-119.803591
Emigrant Peak,,8797,39.188294,-120.277634
Toro Park Peak 1700,,1700,36.573045,-121.672069
Hosebag Peak,,12120,37.855266,-118.3464
Marlette Peak,,8780,39.188527,-119.894872
Azusa Peak,,2081,34.156207,-117.888365
Rose Peak,,6292,39.283294,-119.611201
Kings Castle,,10348,37.273745,-119.011717
Andrews Mountain,,9440,37.07699,-118.0829
Mount Ian Campbell,,10616,37.26186,-119.0203
Runyon Summit,,1320,34.116434,-118.352974
Rankin Peak,,5291,34.208512,-117.974785
Highland Peak-South Peak,,10824,38.536787,-119.758444
Cary Peak,,8727,38.779279,-119.848537
Bloods Ridge,,8495,38.486357,-120.052629
Red Peak,,1822,34.015104,-119.717975
Peak 9607,,9607,38.645132,-120.02718
Miami Mountain,,4327,37.41931,-119.745308
Bald Mountain,,9228,38.808647,-119.522839
High Mount Benchmark,,1581,34.026557,-119.584165
Manuel Peak,,3520,36.274163,-121.770806
Peak 8064,,8064,39.197662,-118.159904
Peak 8144,,8144,39.215265,-118.157788
Peak 11245,,11245,38.305935,-119.641972
Twin Peaks-West Peak,,7596,34.315326,-117.936039
Robbers Roost,,4100,35.591707,-117.949332
Daff Dome,,9153,37.880714,-119.412889
Stately Pleasure Dome,,9040,37.838666,-119.457736
Winnedumah Paiute Monument,,8333,36.865245,-118.034782
Crystal Crag,,10377,37.591039,-119.014045
Fin Dome,,11673,36.813476,-118.412275
Triplet Rocks,,6151,34.301826,-117.902784
Black Mountain,,11720,38.038695,-119.278736
Fourth of July Peak,,9536,38.658808,-120.023313
Red Rock Mountain,,4489,34.658969,-118.63976
Peak 4328,,4328,35.701142,-118.27887
Dogtooth Peak,,10302,37.154161,-119.039483
Pothole Dome,,8760,37.880206,-119.393492
Little Lakes Peak,,12782,37.396142,-118.741693
Upper Cottonwood Cirque High Point,,13386,36.518087,-118.232975
Mount Cedric Wright,,12336,36.903852,-118.387642
Trapezoid Peak,,12920,37.124054,-118.575783
Peak 3925,,3925,35.6954,-118.312197
Bartolas Point,,7256,35.73627,-118.258724
Peep Sight Peak,,9716,38.497131,-119.851999
Point 3740,,12270,36.640841,-118.37451
Kennedy Point,,10140,37.884474,-118.313055
Grouse Ridge,,7712,39.386325,-120.612674
Figueroa Mountain,,4528,34.743094,-119.985037
Shovel Grave,,6690,38.482812,-120.199813
Mount Lincoln,,8569,39.549445,-118.26312
Lee Vining Peak,,11690,37.972486,-119.198742
Diamond Peak,,8538,39.259216,-119.901421
Parker Peak,,12861,37.814293,-119.184451
Flagpole Peak,,8363,38.845959,-120.056963
Toulon Peak,,7002,40.106815,-118.742776
Juno Peak,,4431,34.606508,-118.412275
Lone Rock,,5998,40.245369,-120.709276
Lightning Rod,,7250,40.281916,-120.581346
The Citadel,,6998,40.206443,-120.483627
Henry Peak,,9334,38.486685,-119.880238
Army Pass Point,,12360,36.494345,-118.228751
Eagle Rock,,6480,39.109006,-120.162248
Clark Mountain,,7198,39.504251,-119.552208
Peak 9380,,9380,38.78286,-119.975595
Sehoo Mountain,,4662,39.419111,-118.5979
Pine Mountain,,8310,36.020919,-118.187828
High Peak,,8519,38.706745,-119.627895
Ventana Double Cone,,4853,36.297003,-121.714869
Blacktop Peak,,12720,37.793887,-119.196097
Finger Peaks,,11498,38.087161,-119.407102
Stanton Peak,,11695,38.057657,-119.363021
Signal Hill,,361,33.799767,-118.163336
Dome 2 Benchmark,,8320,38.693862,-119.587742
Ocean Vista,,612,34.051308,-118.928547
Oak Benchmark,,1488,33.442257,-118.53085
Colorado Hill,,7482,38.670601,-119.709606
Lyon Peak,,8763,39.128052,-119.473114
Point Dume,,203,34.001656,-118.806624
Fresno Dome,,7540,37.454207,-119.535982
Bull Run Peak,,9495,38.475464,-119.892125
Post Peak,,11009,37.6281,-119.328089
Copperopolis Mountain,,1780,37.990312,-120.636449
Castle Rock,,7904,38.98987,-119.908776
Covered Wagon Peak,,9565,38.657164,-120.047479
Rose Knob Peak,,9710,39.293539,-119.957835
Dogskin Benchmark,,7464,39.917011,-119.806981
White Hill,,7640,39.095397,-119.902425
McCauley Hill,,3450,37.736648,-119.996409
Little Grizzly Mountain,,4341,37.711699,-119.917445
Trailer Hill,,3950,37.710578,-119.928474
Jenkins Hill,,3440,37.653098,-119.929473
Peak 5642,,5642,36.154821,-121.4327
Agency Benchmark,,5572,39.821491,-119.286032
Inspiration Point,,4520,34.221397,-118.10925
Bear Mountain,,4771,36.158736,-121.37661
Quartz Mountain,,2475,37.626639,-120.043831
Indian Mountain,,5415,39.211485,-119.753366
Peak 6640,,6640,39.22228,-119.145784
Duck Hill,,5875,39.224784,-119.779244
Nine Hill,,6077,39.235843,-119.75265
Talapoos Peak 2217,,7274,39.497881,-119.341478
Chatsworth Peak,,2314,34.257039,-118.640671
Grace Hill,,800,34.1263,-118.151822
Trumbull Peak,,5004,37.687828,-119.861441
Sugarloaf,,2087,34.310215,-118.383863
Limerock Peak,,2986,34.317955,-118.357902
Cemetery Hill,,620,37.515819,-120.301752
Buckhorn Peak,,3774,37.664017,-120.12404
Southlake Peak 4161,,4161,35.619385,-118.356056
Alder Hill,,6733,39.352585,-120.195236
Schallenberger Ridge,,7469,39.306376,-120.266175
Penole Peak,,943,37.69316,-120.364923
Blank Peak,,1053,37.694891,-120.369515
WakeField Peak,,7110,39.291,-119.685359
Kirby Peak,,5450,37.521832,-119.790931
Williams Peak,,3205,37.599986,-120.170817
Rattlesnake Mountain,,6959,39.315873,-120.530877
Bullshead,,6320,39.234846,-120.201802
Big Chief,,7332,39.240962,-120.196352
Little Chief,,7255,39.245249,-120.202489
Chalk Mountain,,5423,39.320189,-118.122897
Cathedral Rocks,,6644,37.714449,-119.636478
Brushy Peak,,1702,37.767526,-121.703206
Mount La Tuna,,1720,34.223229,-118.338375
Hunter Valley Peak,,2681,37.641966,-120.226092
Magic Mountain,,4878,34.386654,-118.329449
Bullion Hill,,1461,37.575943,-120.258493
Table Top Mountain,,669,37.510441,-120.320163
Old Lonesome,,5157,39.556074,-119.575024
Inspiration Point,,1850,34.47183,-119.713296
Pinoche Peak,,5765,37.63466,-119.775438
Feliciana Mountain,,4174,37.593968,-119.919162
Telegraph Hill,,3402,37.598116,-120.036278
Lookout Point,,3297,34.196861,-118.04941
Olive Hill,,450,34.100178,-118.294175
Bryceburg West,,2761,37.604032,-119.988985
Jackson Butte,,2310,38.339906,-120.721292
Whitaker Lookout,,4120,34.567544,-118.742841
Whitaker Peak,,4148,34.572251,-118.734601
Sawmill Mountain,,5514,34.693215,-118.561406
Fay Canyon Peak 4984,,4880,35.739083,-118.289988
Black Hill,,661,35.358501,-120.831585
Chukar Peak,,6628,35.923984,-117.942867
Bullion Knob,,4063,37.53784,-120.063615
Negro Hill,,1320,38.073231,-120.587182
Peak 3862,Peak 12671,12671,37.08216,-118.470426
Peak 3869,Peak 12694,12694,37.01393,-118.48609
Peak 3940,Peak 12927,12927,37.005832,-118.488353
Peak 13080,,13080,37.10489,-118.700709
Peak 12880,,12880,37.078326,-118.693585
Mount Senior,,12402,36.668006,-118.407726
Mount Torchbearer,,13035,36.673797,-118.394703
Peak 3728,Peak 12231,12231,36.655963,-118.41094
Candlelight Peak,,12077,36.571251,-118.244519
Jackass Peak,,1760,37.177757,-121.491666
White Mountains Wilderness High Point,,14080,37.633522,-118.256644
Muir Peak,,4712,34.222532,-118.111321
Red Hill,,9440,36.354779,-118.281684
Peak 10680,,10680,36.24019,-118.112125
Peak 5526,,5526,34.499377,-119.141536
Peak 6440,,6440,34.502699,-119.104107
Call Benchmark,,3948,36.609537,-121.064176
Big Mountain,,3992,36.591395,-121.026256
Rock Spring Peak,,4033,36.467153,-120.906652
Mopung Hills High Point,,4905,39.88333333,-118.7166667
Mount Pickens,,4223,34.248602,-118.207458
Hawks Peak,,3726,34.239136,-118.198525
Lamont Benchmark,,7621,35.807363,-118.020018
Catheys Mountain,,2867,37.469161,-120.064848
American Camp Lookout,,3405,38.086261,-120.387185
Campbellville Benchmark,,4017,40.03333333,-121.7166667
Kagel Mountain,,3537,34.333558,-118.384863
Bacon Hill,,696,36.451794,-119.181007
Twin Buttes-South Peak,,651,36.43333333,-119.2
Castle Rock,,538,36.41666667,-119.0833333
Sentinel Butte,,737,36.446875,-119.110432
Grapevine Peak,,1935,36.563194,-119.121998
Washapie Mountain,,2428,36.65,-119.15
Ruth Hill,,2731,36.730328,-119.192508
Bear Mountain,,3355,36.75,-119.2833333
Kirkman Hill,,538,36.76666667,-119.5
Hollywood Bowl Overlook,,1020,34.116396,-118.342065
Point 944,,944,34.116474,-118.333315
Michael Minaret,,12257,37.659923,-119.179414
Warm Springs Mountain,,4020,34.6,-118.5833333
Mount Hough,,7232,40.044297,-120.886119
Monte Cristo Peak,,4275,34.33333333,-118.1
Smith Peak Lookout,,3877,37.8,-120.1
Crandall Peak,,5449,38.158949,-120.143512
Woods Ridge Lookout,,6008,37.96666667,-119.9666667
Iron Mountain-Northwest Summit,,9158,37.48333333,-119.5
Iron Mountain,,9154,37.48333333,-119.4833333
Briar Summit,,1509,34.126095,-118.368448
Funk Hill,,1753,37.98333333,-120.5666667
Abbotts Peak,,1545,37.976265,-120.622319
Fay Peak,,5474,35.73333333,-118.3666667
Point 1815,,1815,34.2,-118.3
Peak 2256,,2256,34.21666667,-118.3166667
Peak 2646,,2646,34.21666667,-118.3
Grizzly Peak,,6222,37.729871,-119.550745
Elephant Rock,,4820,37.71666667,-119.7166667
Turtleback Dome,,5300,37.71666667,-119.7
Pine Mountain,,1327,35.49283,-120.655793
East Corey Peak,,10280,38.45,-118.7666667
Little Shuteye Peak,,8353,37.394701,-119.470127
Goat Mountain,,4980,37.3,-119.5666667
Elizabeth Peak,,4942,38.06666667,-120.25
Duckwall Mountain,,5835,37.968619,-120.119737
Thompson Peak,,5294,37.99913,-120.068882
Peak 1430,,1430,34.061036,-118.563913
Malapie Hill,,5280,38.43333333,-118.0666667
Rock Hill,,4825,38.148372,-117.941849
Peak 9413,,9413,38.476631,-119.903143
Peak 9352,,9352,38.46666667,-119.9
Olmsted Point,,8418,37.81666667,-119.4833333
Cinder Pit Hill,,6760,39.23333333,-119.7333333
Alder Hill,,7720,38.62982,-120.238677
Peak 5330,,5330,39.28333333,-118.3833333
Peak 7720,,7720,39.256887,-120.088628
Peak 7779,,7779,38.663302,-119.673336
Peak 7855,,7855,38.839847,-119.822596
Peak 7840,,7840,39.031359,-120.183514
Peak 7960,,7960,39.013488,-120.17094
Peak 7990,,7990,38.719309,-119.637244
Peak 8085,,8085,38.768546,-120.015672
Peak 8089,,8089,38.786144,-120.116051
Cottonwood Benchmark,,11710,37.546483,-118.203664
Mount Mocho,,3664,37.455647,-121.494541
White Ledge Peak,,4640,34.469911,-119.392076
Sherwin Peak,,10278,37.6,-118.9833333
Llama Mountain,,6771,38.375476,-118.049869
Thunder Mountain,,7990,38.326373,-118.200359
Broken Hills High Point,,6632,39.15,-117.9333333
Volcano Peak,,6582,38.501228,-118.088479
Peak 4608,,4608,35.85,-117.9166667
Nola Benchmark,,4446,38.76666667,-118.65
Copper Benchmark,,6573,38.764792,-118.605008
Peak 6555,,6555,39.117076,-117.936687
Fernley Hills High Point,,5528,39.53333333,-119.1833333
Peak 6009,,6009,38.730351,-119.031973
Cambridge Hills High Point,,6121,38.65,-118.9833333
Reba Benchmark,,8842,38.51666667,-120.0166667
Little Mount Inyo,,8706,36.98333333,-117.9833333
Boulder Benchmark,,8080,38.95,-119.9
Snow Valley Peak-East Peak,,9170,39.15,-119.8666667
Peak 9880,,9880,38.51666667,-118.8333333
Peak 7009,,7009,38.437052,-118.665519
Ryan Benchmark,,7710,38.673416,-118.455234
Peak 7462,,7462,38.629946,-118.37923
Oro Benchmark,,7660,38.4,-118.45
Peak 8770,,8770,38.361277,-118.01784
Peak 6524,,6524,38.484703,-118.425622
Peak 7250,,7250,38.629108,-118.34228
Peak 7427,,7427,38.66666667,-118.5333333
Thorne Point,,5011,38.63333333,-118.6
Sinkavata Hills High Point,,6399,39.05,-118.2
Mandeville Benchmark,,1530,34.090554,-118.498235
Peak 8091,,8091,38.75101,-120.144718
Peak 8160,,8160,39.07998,-120.27089
Peak 8262,,8262,38.697474,-119.689902
Peak 8840,,8840,38.36666667,-117.9333333
Chukar Ridge,,7496,38.704133,-118.329577
Muller Mountain,,8310,38.530643,-118.028398
Panta Benchmark,,6074,38.500859,-118.484201
McMurry Benchmark,,4560,37.18333333,-118.2166667
North Candelaria Mountain,,6747,38.18333333,-118.1
Huntoon Mountains High Point,,8520,38,-118.4666667
Peak 8961,,8961,38.362219,-117.89463
Candelaria Mountain,,6659,38.150116,-118.103371
Redlich Benchmark,,5903,38.16666667,-117.9833333
Eastside Benchmark,,7572,38.066778,-118.349533
Table Mountain,,7680,38.494218,-118.00257
Peak 7979,,7979,38.663028,-118.219886
Wellington Hills High Point,,7902,38.63333333,-119.35
Sportsman Point,,6680,38.66666667,-118.7833333
Peak 7640,,7640,38.18333333,-118.25
Victoria Peak,,11732,38.16666667,-119.4166667
Robinson Peak,,10793,38.165943,-119.386239
Bald Mountain,,9191,38.784264,-118.834305
Black Dyke Mountain,,7331,38.447371,-118.210273
Debs Highpoint,,880,34.097799,-118.194562
Gray Hills High Point,,6680,38.81666667,-118.95
Reese Benchmark,,8034,38.88649,-118.851514
Peak 8625,,8625,38.33277,-118.000717
Barnett Hills High Point,,6248,39.13333333,-118.5
Peak 7255,,7255,38.647545,-118.337774
Peak 7920,,7920,38.65,-118.2666667
Maritinez Hill,,6032,38.58333333,-118.3833333
White Mountain,,5641,38.999309,-118.890524
Mammoth Crest,,11400,37.51666667,-119.0166667
Peak 6780,,6780,38.71666667,-118.8
Peak 6980,,6980,38.58333333,-118.1333333
Valley Benchmark,,7880,38.54444,-118.088951
Peak 7640,,7640,38.63333333,-118.4
Table Mountain,,9251,38.290543,-118.663673
Mable Mountain,,8014,38.45,-118.3
Pilot Cone,,6595,38.988302,-118.436694
Indian Head Peak,,7341,38.61174,-118.330479
Punta Bardini,,10230,37.6,-118.9666667
Silver Peak-West Peak,,8426,39.21666667,-120.25
Peak 10727,,10727,38.262109,-119.483786
Peak 9040,,9040,38.18333333,-119
Peak 8629,,8629,38.63816,-119.156127
Peak 8648,,8648,38.63333333,-119.1
Peak 8508,,8508,37.80012,-119.019141
Peak 2520,Peak 8268,8268,37.66666667,-118.6333333
Peak 6666,,6666,38.640171,-119.244533
Crestview Point,,8478,37.76666667,-118.9833333
Peak 3198,Peak 10492,10492,36.937083,-118.039042
Peak 3146,Peak 10322,10322,36.929619,-118.031923
Peak 3121,Peak 10240,10240,36.922416,-118.02711
Peak 2220,Peak 7283,7283,36.93333333,-118.1166667
Peak 1743,Peak 5719,5719,36.6,-118.1333333
Peak 2123,Peak 6965,6965,36.9,-118.1
Deer Horn Summit,,9829,36.91666667,-118.0333333
Grant Benchmark,,9278,37.81666667,-119.1166667
Sugarloaf,,8665,38.187972,-119.009485
Peak 7560,,7560,37,-118.15
Peak 10452,,10452,38.419671,-119.352851
Keough Benchmark,,5404,37.25,-118.3833333
Sentinal Peak,,7000,37.41666667,-118.0333333
Peak 8640,,8640,37.31666667,-118.2166667
Peak 2580,Peak 8465,8465,37.71666667,-119.0166667
Messenger Point,,6751,36.73333333,-117.9
Peak 3596,Peak 11798,11798,37.55,-118.95
Peak 3575,Peak 11729,11729,37.53333333,-118.9666667
Peak 3464,Peak 11365,11365,37.53333333,-118.9666667
Pridham Minaret,,10958,37.65,-119.1666667
Mount Olsen,,11100,38.03333333,-119.25
Peak 3878,Peak 12723,12723,36.51619,-118.221731
Lost World Peak,,11353,37.58333333,-118.9333333
Mount Downs,,9764,37.78201,-119.056821
Resurgent Dome,,7969,37.65,-118.9
Buller Mountain,,9445,38.381162,-118.687663
Larkin Point,,8720,38.21666667,-118.8833333
Bishop Point,,9334,37.25,-118.4333333
Peak 7880,,7880,37.16666667,-118.0166667
Peak 7848,,7848,37.190955,-117.959733
Peak 7880,,7880,37.16666667,-118
Peak 7275,,7275,37.204697,-117.987156
Peak 7055,,7055,37.43091,-117.92789
Sugarloaf Mountain,,6520,37.41666667,-117.9
Peak 6054,,6054,37.25,-117.9166667
Soldier Peak,,7045,37.33333333,-117.9833333
Obsidian Dome,,8601,37.75901,-119.020686
Mono Jim,,10896,37.56666667,-118.85
Hatchery Benchmark,,4875,36.81666667,-118.25
Black Mountain-East Peak,,9040,37.26666667,-118.2166667
Cowhorn Benchmark,,7801,37.136851,-118.004837
Peak 7640,,7640,37.03333333,-117.9666667
Volcanic Ridge,,11501,37.66666667,-119.1666667
Glass Mountain-North Peak,,11123,37.774908,-118.708636
Glass Cone,,9160,37.75823,-118.734527
Peak 3560,Peak 11680,11680,37.55,-118.9833333
Peak 11108,,11108,37.56666667,-118.85
Peak 11784,,11784,37.717198,-118.280869
Mount Kransat,,9801,37.75,-119.0333333
Copper Mountain,,9440,38.05,-119.2
Tres Plumas Peak,,10592,37.549161,-118.128965
Iron Mountain,,9520,37.48333333,-118.0666667
Sage Hen Peak,,9560,37.48333333,-118.0833333
Benton Point,,11512,37.817514,-118.38541
Black Point,,6958,38.027879,-119.097161
Mount Hicks,,9414,38.279797,-118.817782
Aurora Peak,,8752,38.277641,-118.860655
Spring Peak,,8259,38.255099,-118.84027
Earthquake Dome,,9386,37.666097,-118.999967
Blue Benchmark,,10725,36.967724,-118.054318
Peak 2698,Peak 8852,8852,37.68333333,-118.9833333
Peak 2619,Peak 8593,8593,37.7,-118.9
Mammoth Knolls,,8760,37.66666667,-118.9833333
Shady Rest Point,,8258,37.65,-118.9666667
Peak 2477,Peak 8127,8127,37.66666667,-118.8833333
Black Mountain,,9704,37.83333333,-118.2666667
Davis Mountain,,9400,37.78333333,-118.2333333
Peak 8445,,8445,38.601685,-119.907912
Peak 8514,,8514,39.063821,-120.222653
Peak 8602,,8602,38.64611,-119.876841
Peak 8652,,8652,39.099133,-120.248402
Peak 8700,,8700,38.689268,-120.058501
Peak 8721,,8721,38.985272,-120.163944
Sugarloaf,,9160,37.93333333,-118.3
Pinyon Mountain,,8773,37.701954,-118.174396
Excelsior Mountain,,8680,38.3,-118.3833333
Cedar Hill,,8458,38.18333333,-118.85
Mustang Mountain,,10320,37.9,-118.3166667
Juniper Mountain,,7862,37.672985,-118.141608
Red Mountain,,7960,37.61666667,-118.1166667
Squaw Benchmark,,9207,37.05,-118.1333333
Peak 6486,,6486,35.810157,-117.953682
Boulder Peak-West Peak,,6252,35.8,-117.9333333
Boulder Peak,,6283,35.798254,-117.928061
Peak 5502,,5502,35.763717,-117.94879
Peak 5320,,5320,35.75,-117.9333333
Peak 5280,,5280,35.75,-117.9333333
Brown Benchmark,,5131,35.76666667,-117.9333333
Poverty Hills High Point,,4957,37.05,-118.2666667
Peak 5400,,5400,37.01666667,-118.1666667
Peak 5062,,5062,37.01666667,-118.1833333
Lobdell Benchmark,,8220,38.68333333,-119.1833333
Peak 8040,,8040,37.15,-117.9833333
Airport Point,,7382,37.63333333,-118.8333333
Whitmore Point,,7365,37.63333333,-118.8166667
Peak 1980,Peak 6496,6496,36.98333333,-118.1666667
Pinyon Hill,,7342,37.914138,-118.206968
Pinto Hill,,6047,37.9,-118.1666667
Volcanic Hills High Point,,7398,37.98333333,-118.1
Sentinel Meadow Peak,,10200,37.777872,-118.775339
Painted Rock,,7754,39.213868,-120.180044
Mount Watson,,8424,39.220252,-120.147557
Antelope Mountain,,7617,37.891349,-118.554196
Trafton Mountain,,7825,37.85,-118.5666667
Casa Benchmark,,7907,37.65,-118.9
Dan Benchmark,,8379,37.4,-118.25
Peak 8820,,8820,37.33333333,-118.2333333
Peak 8680,,8680,37.33333333,-118.2333333
Papoose Point,,8480,37.15,-118.0666667
Tollhouse Benchmark,,8253,37.237401,-118.165255
Blind Spring Hill,,7239,37.764744,-118.483472
Tobacco Point,,8225,37.6,-118.85
Satyr Point,,8920,37.2,-118.1
North Harkless Peak,,7880,37.11666667,-118.1333333
Standard Point,,6030,37.35,-118.5166667
Tungsten Benchmark,,5951,37.36666667,-118.5333333
Silver Canyon Peak,,6890,37.4,-118.2833333
Forgotten Point,,8395,36.7,-117.9833333
Wawona Point,,6810,37.518576,-119.600558
Reward Point,,7687,36.73333333,-118.0166667
Long John Point,,7440,36.61666667,-117.95
Four Gables-Southwest Peak,,12760,37.3,-118.7
Nevahbe Point,,12543,37.51666667,-118.7833333
Kelty Peak,,10597,37.748578,-118.686303
Wilfred Peak,,10138,37.739838,-118.670626
Lime Hill,,6520,37.25,-117.9666667
Creag an Turic II,,10669,37.56666667,-118.9833333
Red Peak,,10755,37.6,-118.9666667
Pyramid Peak,,11759,37.58333333,-118.9666667
Peak 3592,Peak 11785,11785,37.56666667,-118.95
Peak 3820,Peak 12533,12533,36.795059,-118.427382
Banner Ridge,,8494,37.700494,-118.579774
Keynot Point,,7742,36.73333333,-117.9166667
Burbank Peak,,1680,34.135927,-118.332024
Deer Peak,,7004,35.91666667,-117.95
Adamson Point,,13200,37.4,-118.7166667
Wilson Butte,,8509,37.78333333,-119.0333333
Haiwee Ridge,,5952,36.15,-117.9166667
Round Mountain,,7612,37.61666667,-118.65
Panorama Dome,,8934,37.61666667,-119
Mount Biedeman-West Peak,,9006,38.15,-119.0833333
Sandy Benchmark,,5164,39.03333333,-118.7666667
Black Mountain,,8136,38.93333333,-118.9166667
Blanca Benchmark,,7854,38.185915,-118.449955
Red Ridge,,5195,39.022818,-118.583851
Reservation Hill,,4528,39.015883,-118.879194
Black Mountain,,5656,39.744286,-119.282041
Black Hills-South Peak,,4966,38.86666667,-118.2166667
Juniper Benchmark,,8965,37.189519,-118.038912
Red Mountain,,5187,37.028869,-118.288379
Modoc Benchmark,,6161,38.876167,-118.656635
Nugent Benchmark,,6517,38.821722,-118.489909
Lodi Benchmark,,6525,39,-117.9166667
Rand Ridge,,6609,38.768707,-118.377686
Mystery Ridge,,5598,38.793497,-118.225079
Finger Rock,,5180,38.686213,-118.00797
Gabbs Mountain,,6226,38.730619,-118.103929
Black Hills North,,5070,38.86666667,-118.2166667
Fissure Ridge-South Peak,,4883,38.9,-118.1833333
Copper Mountain,,5452,38.861632,-118.448625
Big Kasock Mountain,,7142,39.04322,-118.324513
Gil Benchmark,,6382,38.83333333,-118.5833333
Johnson Peak,,11371,36.419936,-118.333354
Mount Nunn,,7830,37.284195,-117.992992
Cone Peak,,10151,37.734069,-118.655391
Peak 6492,,6492,39.21666667,-118.1
Piper Peak,,8199,37.16666667,-118.3833333
Casa Diablo Mountain,,7913,37.578358,-118.550549
Ed Lane Point,,11306,36.25,-118.1166667
Haystack,,4684,36.609534,-117.992821
Crater Mountain,,6051,37.11666667,-118.3
Dog Dome,,9400,37.88333333,-119.35
Incline Peak,,9561,39.294056,-119.940405
Lookout Point,,10182,36.88333333,-118.3166667
Timosea Peak,,8664,36.45,-118.0833333
Simi Hills Peak 2312,,2312,34.2,-118.7666667
Gambler's Special,,12927,36.595029,-118.267007
Point 4668,,4668,34.218886,-118.108113
Bunker Hill,,1344,38.424512,-120.819998
Tunnel Hill,,1441,38.339199,-120.758843
Stockton Hill,,1766,38.3,-120.7166667
Pine Peak,,1402,38.248629,-120.712495
Borax Benchmark,,5483,39.328322,-118.463087
Penon Blanco Peak,,2878,37.732032,-120.261369
Sawmill Point,,9416,36.91666667,-118.3166667
Waller Minaret,,11670,37.670185,-119.186124
Corey Peak,,10520,38.448043,-118.782334
Bald Mountain,,9104,37.78391,-118.901253
Sagehen Peak,,9193,37.852763,-118.8416
Granite Mountain,,8920,37.924261,-118.771348
Cowtrack Mountain,,8874,37.979082,-118.809199
South Crater Mountain,,9138,37.86666667,-119
Bald Peak,,8821,38.303139,-118.970733
Beauty Peak,,9018,38.28677,-118.975153
Masonic Mountain,,9217,38.343642,-119.128318
Mount Jackson,,9381,38.325094,-119.266891
Brass Benchmark,,6367,37.186647,-117.896562
Union Hill,,2150,38.01666667,-120.4
Kennebec Hill,,2280,38.03333333,-120.4
Peak 8772,,8772,38.797316,-119.888428
Carson Hill,,1983,38.021624,-120.503454
Telegraph Hill,,3738,38.03109,-120.351534
Jackass Hill,,1680,38.000949,-120.479791
Desert Peak,,6404,39.211773,-118.832159
June Mountain,,10105,37.73333333,-119.0666667
Red-tailed Hawk Point,,3048,35.68333333,-118.3
Peak 8902,,8902,38.645339,-119.96692
Peak 8910,,8910,38.71666667,-119.9
Peak 8920,,8920,38.789991,-120.050691
Peak 8997,,8997,38.8127,-119.988421
Peak 9000,,9000,38.836304,-119.966791
Peak 9120,,9120,38.940825,-120.239046
Bald Mountain,,6760,39.297084,-120.182784
Whitecap Mountain,,6117,36.11666667,-117.9
Boulder Peak,,6085,36.13333333,-117.8833333
Mount Mars,,2674,35.812594,-121.340904
Peak 9374,,9374,38.654958,-119.95529
Peak 9440,,9440,38.83333333,-119.95
Peak 9452,,9452,38.55,-118.8333333
Peak 9452,,9452,38.715692,-120.023525
Blewetts Point,,3135,38.06666667,-120.3666667
Scattered Bone Peak,,5737,36.13333333,-117.9166667
Peak 9579,,9579,38.906703,-120.130857
Peak 9614,,9614,38.900859,-119.880403
Peak 9600,,9600,38.81397,-119.943145
Peak 9647,,9647,38.832226,-119.927438
Peak 9840,,9840,38.828281,-119.875897
Peak 4862,,4862,39.27675,-118.396525
Bobcat Knob,,6709,34.36666667,-117.9
Eagle Peak,,1607,36.575586,-121.673173
Simas Peak,,2245,36.564703,-121.652255
Crane Flat Lookout,,6644,37.759757,-119.820628
Pilot Peak,,6006,37.762776,-119.935985
Leek Spring Hill,,7621,38.62945,-120.277327
Armstrong Hill,,5701,38.542466,-120.384272
Stoney Point,,1243,34.26666667,-118.6
Messenger Peak,,6015,34.381023,-118.198857
Beartrap Bluff,,6160,34.65,-119.2666667
Chowchilla Mountain,,6967,37.55,-119.75
Mount Bell,,1582,34.135402,-118.301958
Mount Chapel,,1600,34.136576,-118.308548
Baltic Peak,,5078,38.694153,-120.51517
Champbell mountain,,1752,36.7,-119.4166667
Rattlesnake Mountain,,5396,36.58333333,-118.1166667
Mount Wood,,12657,37.80931,-119.165955
Peak 11518,,11518,37.21666667,-118.5333333
Lookout Mountain,,11261,37.246899,-118.51518
Peak 12668,,12668,37.15,-118.5166667
Peak 3920,Peak 12861,12861,37.15,-118.5
Sky Haven,,12880,37.15,-118.5
Wildcat Point,,9455,37.93333333,-119.45
Crater Mountain,,12874,36.921626,-118.421288
Crater Crest,,11400,38.122809,-119.337223
Peak 11720,,11720,38.1,-119.3333333
Tam Benchmark,,11219,38.11666667,-119.3
Duck Lake Peak,,12051,37.56666667,-118.9333333
The Major General,,12402,36.511637,-118.258252
Folger Peak,,9720,38.5,-119.8166667
Point 7093,,7093,37.95,-119.75
Peak 7218,,7218,37.93333333,-119.75
Mammoth Rock,,9144,37.61666667,-118.9833333
Cahoon Rock,,9278,36.378761,-118.690152
Treasure Peak,,12920,37.38333333,-118.7833333
Lookout Peak,,11902,37.41121,-118.766713
Mono Pass Peak,,12760,37.423685,-118.778257
Mount Hopkins,,12304,37.463857,-118.813362
Robber Baron Peak,,12404,37.48333333,-118.8166667
Mount Crocker,,12458,37.482998,-118.825464
Hilton Peak,,12508,37.48333333,-118.7833333
Pywiack Dome,,8851,37.846325,-119.44293
Mount Hutchings,,10785,36.832921,-118.601103
Lost Cannon Peak-Northwest Peak,,11060,38.41666667,-119.55
White Benchmark,,11324,38.36666667,-119.6
White Mountain,,12057,37.946973,-119.309586
Peak 11255,,11255,37.928933,-119.33311
Isosceles Peak,,12321,37.093937,-118.538747
Taft Point,,7503,37.712922,-119.604457
Lookout Point,,5309,37.9,-119.8333333
Dudley Hill,,3440,37.75,-120.1166667
Greeley Hill,,3629,37.742859,-120.15554
Blue Benchmark-North Peak,,10760,36.971016,-118.048997
Mazourka Peak,,9413,36.98333333,-118.1166667
Two Sentinels,,8780,38.7,-120.0833333
Carson Spur,,8290,38.702894,-120.100694
Triunfo Lookout,,2658,34.105977,-118.915415
Peak 12808,,12808,37.31257,-118.692034
Mount Broderick,,6706,37.733526,-119.535284
Elbow Hill,,9286,37.970658,-119.402761
Basket Dome,,7612,37.763523,-119.550991
Ahwiyah Point,,7140,37.75,-119.5333333
Ottoway Peak,,11500,37.65,-119.4
Middle Cathedral Rock,,6540,37.71666667,-119.6333333
Lower Cathedral Rock,,5580,37.71666667,-119.65
Grey Butte,,11340,38.05,-119.35
Shepherd Crest,,12040,38,-119.3166667
Peak 12212,,12212,37.08333333,-118.75
White Mountain,,8740,36.25,-118.4833333
Hetch Hetchy Dome,,6197,37.965347,-119.752951
Thorn Benchmark,,5499,34.28333333,-118.0666667
Peak 12123,,12123,37.23333333,-118.7
Boulder Peak,,9393,38.447741,-119.687805
Peak 11105,,11105,37.827108,-119.360619
China Hat,,700,37.456635,-120.349345
Blue Canyon Peak,,11860,37.03333333,-118.7166667
Mount Woodworth,,12219,37.025752,-118.616896
Lost Arrow Spire,,6930,37.75,-119.6
Peak 186,,186,33.980983,-119.994135
Consolation Point,,9759,37.76666667,-119.15
Mount Emma,,10525,38.27754,-119.475632
Harkless Peak,,7620,37.08333333,-118.1666667
Williams Butte,,8429,37.919081,-119.115186
Crater Mountain,,9172,37.878038,-119.007125
Eagle Lake Buttress,,8640,38.95,-120.1333333
Hobo Benchmark,,6365,35.51666667,-118.5666667
Middle Chalone Peak,,2904,36.439549,-121.19563
Turn Table,,4895,39.85,-120.8666667
Chumash Peak,,1257,35.31666667,-120.7
Cerro San Luis Obispo,San Luis Mountain,1292,35.28333333,-120.6833333
Tahoe Mountain-Southeast Summit,,7127,38.9,-120.0333333
Angora Ridge,,7290,38.88333333,-120.05
Peak 4456,,4456,36.28333333,-121.6666667
Ventana Cone,,4727,36.284378,-121.678348
South Ventana Cone,,4965,36.275003,-121.636891
Black Butte,,4941,36.267287,-121.541276
Willow Creek Peak,,2437,36.585864,-121.22228
Mount Reynolds,,3146,36.584245,-121.276997
Peak 6361,,6361,37.35,-118.55
Peak 6075,,6075,39.46666667,-119.7
Peak 5990,,5990,39.5,-119.6833333
Peak 4939,,4939,39.5,-119.6333333
Peak 9225,,9225,39.28333333,-119.9
Peak 6861,,6861,39.33333333,-119.6166667
Peak 7036,,7036,39.35,-119.6
Peak 5404,,5404,39.2,-119.7166667
Peak 7800,,7800,39.1253,-119.923368
Peak 8728,,8728,39.15,-119.9
Peak 8206,,8206,39.2,-119.85
Peak 7200,,7200,39.13333333,-119.9333333
Peak 6320,,6320,39.133589,-119.80093
Peak 5962,,5962,39.23333333,-119.7666667
Peak 6105,,6105,39.23333333,-119.75
Grouse Mountain,,8083,37.3,-118.5833333
Peak 5861,,5861,39.18333333,-119.6333333
Peak 5635,,5635,39.2,-119.8
Peak 5640,,5640,39.165439,-119.571419
Peak 5680,,5680,39.189425,-119.576397
Tibbie Peak,,7277,39.36666667,-119.5333333
Kid Mountain,,11860,37.100612,-118.429871
Peak 6520,,6520,39.403836,-119.601717
Peak 6410,,6410,39.43333333,-119.6666667
Peak 4910,,4910,39.48333333,-119.7333333
Peak 5088,,5088,39.58333333,-119.7666667
Peak 5470,,5470,39.58333333,-119.8
Peak 5870,,5870,39.61666667,-119.8
Peak 5890,,5890,39.55,-119.6666667
Melissa Coray Peak,,9763,38.65,-120.0333333
Granite Hills High Point,,6018,39.65,-119.9333333
Peak 6305,,6305,39.41666667,-119.6666667
Peak 8208,,8208,39.2,-119.8666667
Peak 8407,,8407,39.21666667,-119.9
Peak 8703,,8703,39.23333333,-119.9
Peak 5611,,5611,39.03333333,-119.6666667
Peak 7080,,7080,39.039653,-119.566054
Peak 7360,,7360,39.022518,-119.525843
Peak 6480,,6480,38.811891,-119.643345
Peak 6530,,6530,38.81666667,-119.6333333
Peak 6501,,6501,38.81666667,-119.65
Peak 5812,,5812,38.81666667,-119.7333333
Peak 5942,,5942,38.91666667,-119.6
Indian Rock,,8600,38.864707,-120.076232
Angora Peak,,8586,38.86666667,-120.0666667
Peak 6082,,6082,38.9,-119.6
Maggies Peaks-North Summit,,8499,38.93333333,-120.1166667
Emerald Point,,9195,38.96666667,-120.1166667
Brown Mountain,,7144,38.988769,-120.288105
Mount Alice,,11617,37.123576,-118.465962
Buck Mountain,,12841,37.11666667,-118.4666667
Cold Mountain,,10301,37.950425,-119.427309
Ladybug Peak,,8360,39.485628,-120.04529
Tamarack Peak,,11778,38.1,-119.3166667
Peak 6080,,6080,39.057517,-119.392934
Peak 6182,,6182,39.08333333,-119.3833333
Peak 8280,,8280,39.067081,-119.471512
Peak 6611,,6611,39.08333333,-119.4333333
Wells Peak,,11109,38.12264,-119.528761
Center Mountain,,11271,38.144379,-119.489236
Peak 7134,,7134,38.98333333,-119.5166667
Grouse Mountain,,10734,38.161995,-119.489965
Peak 7711,,7711,38.93333333,-119.5166667
Hawksbeak Peak,,11134,38.152513,-119.508204
Ehrnbeck Peak,,11240,38.13746,-119.515457
Rice Peak,,8876,38.98333333,-119.4666667
Peak 6440,,6440,39.107153,-119.81977
Peak 6086,,6086,38.8,-119.7
Fall Creek Mountain,,7490,39.405196,-120.628381
Peak 10578,,10578,38.38333333,-119.6666667
Peak 11010,,11010,38.36666667,-119.65
Little Pyramid Peak,,9441,38.88333333,-120.1833333
Peak 8654,,8654,38.935746,-120.210214
Alder Ridge Lookout,,6192,38.75,-120.3333333
Castle Point,,8041,38.704468,-120.120263
Martin Point,,9250,38.68886,-120.092368
Peak 8992,,8992,39.15,-119.8833333
Twin Peak,,4843,36.052535,-121.508489
Poho Ridge,,3955,38.801491,-120.591173
Saddle Mountain,,5165,38.846594,-120.582719
Chaix Mountain,,4935,38.836098,-120.575767
Helester Point,,4930,39.213802,-120.693269
Big Valley Bluff,,6365,39.23333333,-120.5833333
Tryon Peak,,9970,38.521612,-119.787927
Airola Peak,,9942,38.457555,-119.81565
Iceberg Peak,,9781,38.450296,-119.822645
Peak 9366,,9366,38.439103,-119.837365
Peak 12406,,12406,37.15,-118.5166667
Peak 13112,,13112,37.15,-118.5333333
Peak 12565,,12565,37.887184,-119.197884
Mount Conness-East Buttress,,11720,37.96666667,-119.3
Peak 9269,,9269,38.983666,-120.129619
Huckleberry Mountain,,8852,38.8,-120.0666667
Peak 5503,,5503,39.66666667,-119.8
Peak 8901,,8901,39.01666667,-119.8833333
Peak 6030,,6030,39.71666667,-119.85
Sugarloaf Peak,,5292,39.68333333,-119.6666667
Alabama Hills High Point,,5354,36.63333333,-118.1166667
Peak 6021,,6021,39.71666667,-119.8166667
Peak 5796,,5796,39.71666667,-119.9166667
Hungry Ridge South,,6020,39.72432,-119.714928
Hungry Ridge North,,6024,39.73333333,-119.7166667
Peak 1767,Peak 5797,5797,39.73333333,-119.65
Washington Hill,,5922,39.46666667,-119.6166667
Granite Peak,,6152,39.85,-119.8833333
Peak 2014,Peak 6608,6608,39.76666667,-119.9166667
Peak 8016,,8016,38.93333333,-119.4666667
Porcupine Mountain,,5331,39.88366,-119.949846
Peak 1998,Peak 6555,6555,39.75,-119.95
Peak 6560,,6560,39.053685,-119.369373
Peak 1766,Peak 5794,5794,39.91666667,-120
Seven Lakes Mountain,,6060,39.91666667,-119.95
Red Rock Benchmark,,7110,39.85,-119.9833333
Frost Benchmark,,5610,39.58631,-119.557729
Peak 2125,Peak 6972,6972,39.63333333,-119.55
Spanish Springs Peak,,7402,39.65,-119.5833333
Peak 1725,Peak 5659,5659,39.83333333,-119.7833333
Peak 1777,Peak 5830,5830,39.8,-119.8166667
Peak 9191,,9191,38.85,-119.5166667
Peak 7074,,7074,38.86666667,-119.5833333
Peak 7764,,7764,38.83333333,-119.5666667
Peak 8130,,8130,38.8,-119.55
Peak 8960,,8960,38.802092,-119.485373
Peak 7120,,7120,38.766766,-119.474301
Peak 7242,,7242,38.8,-119.4166667
Peak 8562,,8562,38.8,-119.45
Eagle Mountain,,8960,38.816806,-119.478164
Pine Nut Benchmark,,7865,38.61666667,-119.3666667
Peak 7880,,7880,38.832253,-119.445462
Don Benchmark,,7942,38.56666667,-119.3166667
Shoemaker Hill,,3040,38.884353,-120.806222
Gilcrest Peak,,11575,38.011042,-119.230499
Peak 13200,,13200,37.135072,-118.62196
Point Wesley,,13356,37.136817,-118.629727
Peak 12320,,12320,37.750596,-119.296889
Stony Hill,,1898,38.946794,-120.98402
Pah Ute,,8417,35.45,-118.3833333
Silver Hill,,6081,38.898549,-120.46865
Relief Peak,,10808,38.237439,-119.697118
Molo Mountain,,10875,38.234506,-119.656992
Kennedy Peak,,10718,38.245765,-119.654632
Peak 10612,,10612,38.22446,-119.636521
Big Sam,,10825,38.23333333,-119.6166667
The Watchtower,,10880,38.15,-119.55
Snow Peak,,10945,38.11666667,-119.5666667
Craig Peak,,11087,38.13333333,-119.5666667
Peak 10341,,10341,38.13333333,-119.6333333
Michie Peak,,10373,38.123856,-119.656048
Kendrick Peak,,10396,38.124734,-119.638753
Quartzite Peak,,10414,38.16666667,-119.6333333
Bigelow Peak,,10539,38.149037,-119.628024
Grizzly Peak,,10365,38.192054,-119.62163
Horse Creek Peak,,11600,38.08333333,-119.3666667
Pyramid Peak,,12840,37.374626,-118.757787
Crystal Peak,,7800,39.942154,-120.125499
Mount Tom,,9026,37.375546,-119.179344
Turret Peak,,12091,37.263637,-118.842716
Peak 12126,,12126,38.03333333,-119.3166667
Jerrett Peak,,7504,39.031187,-120.331364
Mckinstry Peak,,7933,39.052252,-120.346684
Guide Peak,,7741,39.03792,-120.312996
Devil Peak,,7541,39.03333333,-120.2833333
Peak 9626,,9626,38.63333333,-120
Peak 8760,,8760,38.86666667,-120.0833333
Peak 7766,,7766,39.26666667,-120.0666667
Rose Knob,,9600,39.290137,-119.981561
Peak 9499,,9499,39.28333333,-119.9833333
Rifle Peak,,9480,39.289307,-119.991817
Peak 8506,,8506,39.21666667,-120.2666667
Peak 8761,,8761,39.23333333,-120.2833333
Picayune Peak,,8509,39.16666667,-120.3333333
Peak 8458,,8458,39.15,-120.3333333
Peak 8304,,8304,39.15,-120.3333333
Peak 8109,,8109,39.15,-120.3166667
Billys Peak,,8600,39.237406,-120.273857
North Peak,,7286,39.75,-120.7166667
Eureka Peak,,7447,39.747257,-120.721679
Spanish Peak,,6960,39.93333333,-121.1333333
Bucks Mountain,,6819,39.918822,-121.207609
Stafford Mountain,,7019,39.742208,-120.826735
Mount Etna,,7163,39.75,-120.8333333
Pilot Peak,,7457,39.783213,-120.868878
Point Mariah,,6868,39.26666667,-120.4
Peak 9390,,9390,38.809751,-119.855819
Blue Mountain,,8772,38.848633,-120.197854
Sand Ridge,,7428,39.40639,-120.576668
West Peak,,10529,37.980266,-119.498119
Pyramid,,8101,40.16666667,-119.45
Knee Ridge,,8416,39.062949,-120.185623
Rafferty Peak,,11110,37.815141,-119.35564
Gabbro Peak,,11000,38.06666667,-119.3166667
Kettle Peak,,11000,38.122968,-119.428714
Slide Mountain,,11084,38.093308,-119.445899
Cirque Mountain,,10713,38.131543,-119.458884
Bright Star Wilderness High Point,,6080,35.465903,-118.263761
Bald Mountain-East Shoulder,,9360,36.019591,-118.252673
Magic Mountain Wilderness High Point,,4705,34.400484,-118.292575
Matilija Wilderness High Point,,5938,34.56873,-119.447565
Juniper Benchmark-Northeast Slope,,8840,37.190104,-118.037045
Sacatar Trail Wilderness High Point,,8840,36.03082,-118.043575
Hi Mountain-Southeast Ridge,,3160,35.259201,-120.424483
North Sacatar Wilderness High Point,,8840,36.043755,-118.045885
Peak 7240,,7240,38.362498,-119.465544
Pickle Benchmark,,8084,38.350115,-119.482553
Peak 9980,,9980,35.931417,-118.331129
Escapula Peak,,7080,34.86666667,-119.0666667
Rincon Mountain,,2152,34.36666667,-119.4166667
Peak 1922,,1922,34.21666667,-118.3166667
Townsend Peak,,3153,34.56666667,-118.7
Clarks Peak,,1965,34.08333333,-118.9666667
Cub-Butt Divide,,6545,40.165278,-121.443153
Ben Lomond,,6543,40.001716,-121.307624
Paul Benchmark,,3854,40.004787,-121.281458
Peak 10520,,10520,36.991661,-118.662108
Excelsior Mountain-North Peak,,12200,38.030152,-119.307579
Granite Peak,,1750,33.44607,-118.542968
Peak 2806,,2806,34.319834,-118.365712
Peak 6168,,6168,34.38333333,-118
Peak 2732,,2732,34.31666667,-118.35
Peak 4492,,4492,34.23333333,-118
Agua Dulce Benchmark,,2843,34.45,-118.35
Peak 3784,,3784,34.495852,-118.24408
Parker Mountain,,4131,34.46666667,-118.2166667
Peak 4054,,4054,34.41666667,-118.3
Peak 4280,,4280,34.45,-118.1166667
Peak 4440,,4440,34.46666667,-118.1166667
Peak 3788,,3788,34.45,-118.1666667
Peak 3819,,3819,34.43333333,-118.1666667
Snow Benchmark,,4949,34.4,-118.2666667
Yerba Buena Ridge,,3892,34.3,-118.3
Peak 6000,,6000,34.38333333,-118.1333333
Peak 4202,,4202,34.26666667,-118.1666667
Peak 4654,,4654,34.26666667,-117.9333333
Peak 6320,,6320,34.33333333,-117.8833333
Peak 2843,,2843,34.18333333,-117.9
Los Pinetos Peak,,3560,34.354775,-118.459182
Twelve Flags Peak,,13470,37.410443,-118.72309
Adams Minaret,,11942,37.656959,-119.177285
Ken Minaret,,12205,37.657886,-119.173609
Eichorn Minaret,,12205,37.66127,-119.178424
Leonard Minaret,,11637,37.667567,-119.18217
Rice Minaret,,12205,37.66215,-119.178768
Dyer Minaret,,11614,37.664543,-119.180459
Turner Minaret,,11614,37.666378,-119.182018
Jensen Minaret,,11483,37.665355,-119.181486
Dawson Minaret,,11942,37.663399,-119.179756
Bedayan Minaret,,12073,37.662917,-119.179338
Slide Peak,,10915,36.9,-118.7
Cross Mountain,,12180,36.73333333,-118.5
Avalanche Peak,,10079,36.76666667,-118.5833333
Grand Sentinel,,8518,36.78333333,-118.5833333
Suicide Ridge,,11047,38.08333333,-119.4666667
Bath Mountain,,10540,38.06666667,-119.4666667
Hooper Peak,,9575,37.95,-119.4666667
Tiltill Mountain,,8988,38.03333333,-119.6666667
Andrews Peak,,8570,38.03333333,-119.6833333
Mahan Peak,,9149,38.05,-119.6833333
Chittenden Peak,,9685,38.1,-119.6166667
Schofield Peak,,9944,38.1,-119.6833333
Haystack Peak,,10003,38.1,-119.6833333
Flatiron Butte,,11384,38.2,-119.5
Ink Rocks South,,11094,38.2,-119.4833333
Hanna Mountain,,11459,38.18333333,-119.4833333
Hunewill Peak,,11713,38.16666667,-119.45
Acker Peak,,10988,38.11666667,-119.5166667
Keyes Peak,,10618,38.13333333,-119.5833333
Stag Dome,,7710,36.81666667,-118.7
Buck Peak,,8820,36.8,-118.55
Scoop Benchmark,,240,34.013503,-119.367056
Benchmark 2140,,2140,34.25,-118.2833333
Mount Adelaide,,3430,35.43333333,-118.75
Sunrise Mountain,,9960,37.802228,-119.43739
Indiana Summit,,8240,37.8,-118.9333333
Crowley Benchmark,,7208,37.56666667,-118.7166667
Sullivan Benchmark,,1986,34.11666667,-118.5166667
Quarry Peak,,11161,38.04497,-119.419254
Doghead Peak,,11059,38.052281,-119.430184
Kid Peak,,11458,36.88333333,-118.55
Isberg Peak,,10996,37.65,-119.3166667
Peak 10605,,10605,36.43333333,-118.1666667
Kenter Ridge High Point,,1640,34.1,-118.5
Peak 3430,,3430,34.199824,-117.892257
Peak 2885,,2885,34.2,-117.9166667
Peak 3619,,3619,34.2,-117.9333333
Middle Benchmark,,4505,34.21666667,-118
Peak 3812,,3812,34.21666667,-117.8833333
Peak 2400,,2400,34.25,-117.9
Peak 3702,,3702,34.26666667,-117.9
Peak 4065,,4065,34.26666667,-117.9166667
Peak 4177,,4177,34.26666667,-117.9666667
Peak 5400,,5400,34.282783,-117.997872
Peak 7160,,7160,34.35,-117.8833333
Peak 6629,,6629,34.35,-117.9666667
Peak 6306,,6306,34.4,-117.95
Peak 6103,,6103,34.38333333,-118
Alimony Ridge,,4939,34.45,-118
Peak 4183,,4183,34.5,-118.1
Peak 4280,,4280,34.43333333,-118.1
Peak 4322,,4322,34.46666667,-118.1
Peak 4296,,4296,34.48333333,-118.1
Peak 4427,,4427,34.48333333,-118.0833333
Peak 5080,,5080,34.46666667,-118.05
Peak 4358,,4358,34.43333333,-118.0166667
Peak 4946,,4946,34.43333333,-118.0333333
Peak 4880,,4880,34.41666667,-118.0333333
Peak 5120,,5120,34.41666667,-118.0333333
Peak 5881,,5881,34.41666667,-118.05
Peak 5840,,5840,34.4,-118.0666667
Peak 5560,,5560,34.31666667,-118
Peak 4583,,4583,34.25,-118.0666667
Peak 4711,,4711,34.26666667,-118.1333333
Peak 4253,,4253,34.26666667,-118.1833333
Peak 3150,,3150,34.3,-118.2333333
Peak 4408,,4408,34.31666667,-118.15
Peak 5146,,5146,34.35,-118.1333333
Peak 5400,,5400,34.35,-118.1666667
Peak 5162,,5162,34.33333333,-118.2166667
Peak 5682,,5682,34.38333333,-118.2333333
Peak 5705,,5705,34.38333333,-118.2166667
Peak 5150,,5150,34.4,-118.15
Peak 3408,,3408,34.48333333,-118.1833333
Peak 3640,,3640,34.48333333,-118.2333333
Peak 3636,,3636,34.488961,-118.266095
Peak 3166,,3166,34.45,-118.2666667
Peak 3700,,3700,34.4,-118.3333333
Peak 3897,,3897,34.43333333,-118.3166667
Peak 2844,,2844,34.45,-118.3166667
Peak 5240,,5240,34.35,-118.2666667
The Pinnacle,,3836,34.35,-118.35
Peak 3119,,3119,34.35,-118.4833333
Peak 3160,,3160,34.38333333,-118.3833333
Horse Benchmark,,2391,34.38333333,-118.4333333
Peak 4724,,4724,34.26666667,-118.0666667
Peak 4234,,4234,35.28333333,-119.75
Crane Ridge,,2986,37.600576,-121.616483
Milk Ranch Peak,,6250,36.48333333,-118.7833333
Milk Ranch Peak Lookout,,6225,36.48333333,-118.7833333
Salisbury Benchmark,,5182,34.81666667,-119.7166667
Los Coches Mountain,,3016,34.98333333,-120.25
Camuesa Peak,,3180,34.55,-119.6833333
Mount Oso,,3360,37.507341,-121.374272
Manzanita Mountain,,3193,34.9,-120.0833333
Bald Mountain,,2834,35.23333333,-120.5
Weldon Ridge High Point,,6406,35.35,-118.3
Pacheco Peak,,2770,37,-121.2833333
Branch Mountain,,3770,35.18333333,-120.0833333
Blue Ridge Lookout site,,5733,36.28333333,-118.8333333
Duncan Peak,,7182,39.15,-120.5
Saddleback Mountain,,6690,39.63333333,-120.8666667
McCarthy Point,,3845,40.18333333,-121.6833333
Goat Mountain Lookout,,4674,37.26666667,-119.55
Banner Mountain,,3899,39.25,-120.9666667
Sunset Hill,,3321,39.51666667,-121.3
Wolf Mountain,,2632,39.13333333,-121.1
Red Rock,,7596,40.3,-120.7166667
Black Mountain,,7161,40.11666667,-120.3166667
Zephyr Point Lookout,,6841,39,-119.95
Radio Hill,,3939,39.93333333,-120.9333333
Black Mountain,,3622,35.4,-120.35
Howell Hill,,2607,39.06666667,-120.9666667
Oregon Peak,,3447,39.38333333,-121.1833333
Platte Mountain Lookout,,3540,39.93333333,-121.65
Oak Flat Lookout,,4923,35.53333333,-118.7
Lexington Hill Lookout,,5771,39.68333333,-121.0166667
Mount Ararat,,6010,39.81666667,-121.1333333
Red Hill,,6348,40.03333333,-121.1833333
Henness Ridge Lookout,,6347,37.63333333,-119.7166667
Bunker Hill,,7524,39.05,-120.3833333
Argentine Rock Lookout,,7209,39.95,-120.7666667
Big Bar Mountain,,4377,39.78333333,-121.4333333
Black Mountain,,3599,37.01307,-119.452224
South Mountain West,,2263,34.33333333,-119.0333333
Sulphur Mountain High Point,,2820,34.41666667,-119.1666667
South Mountain,,2350,34.33333333,-119.0166667
Peak 2080,,2080,34.11666667,-118.85
Hauser Benchmark,,5184,34.55,-118.2166667
Point 6903,,6903,34.36666667,-117.9333333
Hot Benchmark,,5606,34.9,-119.8833333
Benchmark 1632,,1632,34.13333333,-118.65
Sunrise Mountain,,10640,37.375526,-118.176174
Tower Rock,,7779,40,-120.7833333
The Sisters-West Summit,,10045,38.66666667,-120.0166667
Black Butte,,9031,38.68333333,-120.0166667
Divide Benchmark,,12900,37.23333333,-118.7666667
Mount Anna Mills,,12064,36.46666667,-118.35
Diamond Mesa,,13189,36.68333333,-118.3666667
Peak 2356,,2356,34.55,-118.55
Rocky Benchmark,,6207,34.36666667,-118.1833333
Charlies Butte,,3860,37.01666667,-118.2166667
Red Hill,,4635,37.36666667,-118.4666667
Duncan Hill,,1608,38.71666667,-120.9666667
East Coyote Hills High Point,,534,33.9,-117.9
Salmon Cone,,440,35.81666667,-121.3666667
Mount Lamarck-West Summit,,13320,37.2,-118.6833333
Mount Hansen-South Summit,,12840,37.06666667,-118.6833333
Peak 13040,,13040,37.1,-118.7166667
Mount Goddard-West Peak,,13560,37.103025,-118.719903
Barefoot Peak,,12533,36.91666667,-118.4666667
Peak 3880,Peak 12730,12730,36.91666667,-118.45
Mount Ickes,,12927,36.93333333,-118.4333333
Mount Ickes-Northeast Summit,,12598,36.93333333,-118.4333333
O'Burley Peak,,12598,36.93333333,-118.4333333
Crater Mountain-North Summit,,12598,36.93333333,-118.4166667
Peak 10973,,10973,38.41666667,-119.5666667
MIRA Observatory,,5000,36.3,-121.5666667
Mount Danaher,,3360,38.75,-120.6666667
Stanford Point,,6659,37.7,-119.6666667
Crocker Point,,7090,37.7,-119.6666667
Dewey Point,,7320,37.7,-119.65
Leaning Tower,,5880,37.71666667,-119.65
Crooked,,9317,37.85,-118.85
Gold Mountain,,6811,40.31666667,-118.15
Flagstaff Hill,,1421,38.76666667,-121.0833333
Pilot Hill,,1869,38.81666667,-121.0333333
Slate Mountain,,3892,38.81666667,-120.6833333
Chavez Grave Site Tree,,2610,35.22401,-118.55873
The Buttresses-North End,,8202,37.627169,-119.090903
El Chamisal,,940,36.586618,-121.747275
Mount Thoreau,Mount George Davis,12691,37.224921,-118.663097
Mount Gould,Mount Stephen Jay Gould,13360,37.180335,-118.686991
Silver Peak-Southwest Summit,,10772,38.564054,-119.760067
Peak 1428,,1428,33.95,-117.9
Sign Benchmark,,5599,34.9,-119.8166667
Antler Point,,2999,37.38333333,-121.7
Cheapskate Hill,,595,35.26666667,-120.65
Terrace Hill,,501,35.26666667,-120.65
Dairy Creek Overlook,,664,35.33333333,-120.7166667
Little Madonna Peak,,568,35.26666667,-120.6833333
Tumey Benchmark,,2482,36.53333333,-120.6666667
Tumey Hills Highpoint,,2628,36.51666667,-120.65
Tumey Hills North,,2567,36.53333333,-120.6833333
Chorro Hill (Turtle Rock),,209,35.35,-120.8166667
Peak 2676,,2676,37.11666667,-121.45
Peak 2657,,2657,37.13333333,-121.45
Phegley Ridge,,2208,37.06666667,-121.4166667
Mummy Mountain,,1374,37.06666667,-121.5333333
Bills Hill,,1988,37.05,-121.4333333
Polly Dome,,9806,37.85,-119.45
Sheep Peak,,11840,37.98333333,-119.3333333
Peak 10760,,10760,38.08333333,-119.4833333
Vasquez Rock,,2660,34.48333333,-118.3166667
Plum Benchmark,,2315,34.46666667,-118.45
Alan Peak,,1649,35.25,-120.8166667
Pigeon Peak,,1093,39.21666667,-121.7666667
Valley View 2 Benchmark,,735,35.18333333,-120.7166667
Schlieper Rock,,3080,37.55,-121.7166667
Brush Mountain - north summit,,7028,34.88333333,-119.2333333
Cavern Point,,316,34.05,-119.5666667
Point 1532,,1532,34.03333333,-119.5833333
Tule Elk Reserve State Park Highoint,,342,35.3,-119.3666667
Harbor 2 Benchmark,,460,34.06666667,-120.3666667
Panochita Hill,,1871,37.3,-121.7
Bethany Reservoir State Recreation Area Highpoint,,365,37.76666667,-121.6166667
Burra Burra Peak,,2281,37.11666667,-121.3666667
Griswold Hills Highpoint,,3224,36.53333333,-120.8166667
Curry Mountain,,2540,36.06666667,-120.45
Condon Peak,,4970,36.31666667,-120.6166667
Laguna Mountain,,4512,36.33333333,-120.8166667
Grass Mountain,,3685,34.76666667,-120.05
Zaca Peak,,4341,34.76666667,-120.0166667
Yerba Benchmark,,2457,37.31666667,-121.7333333
Old Man Mountain,,3920,34.6,-119.7833333
Caswell Memorial State Park High Point,,43,37.7,-121.1833333
Henry Coe State Park High Point,,3607,37.31666667,-121.4
George Hatfield State Park Highpoint,,71,37.35,-120.9666667
Idria Peak,,4655,36.4,-120.6833333
North Hill,,4658,36.4,-120.6666667
Alta Peak,,4709,36.36666667,-120.6666667
Peak 5840,,5840,34.73333333,-119.5166667
Brush Peak,,3048,34.51666667,-119.85
Morro Rock,,578,35.36666667,-120.8666667
Black Butte,,2749,35.31666667,-120.6
Hollister Peak,,1409,35.35,-120.7833333
Coche Point,,871,34.03333333,-119.6
Ollason Peak,,1799,36.567911,-121.668279
Oats Peak,,1373,35.25,-120.85
Goleta City High Point,,220,34.45,-119.8333333
Santa Barbara City High Point,,1200,34.45,-119.6833333
Hazard Peak,,1076,35.28333333,-120.8666667
Ranger Peak,,4656,34.71666667,-119.95
Pine Ridge High Point,,3041,37.2,-121.55
Rock Springs Peak,,2275,37.08333333,-121.3833333
Vasquez Peak,,2210,37.08333333,-121.4
Peak 2469,,2469,37.1,-121.45
Red Mountain,,3680,37.41666667,-121.4666667
Copper Mountain,,2678,37.41666667,-121.3166667
Peak 2720,,2720,37.38333333,-121.3166667
Mikes Peak,,2620,37.35,-121.3166667
Wilcox Ridge,,2225,37.31666667,-121.2666667
Orestimba Peak,,2074,37.31666667,-121.2333333
Panoche Hills High Point,,2684,36.66666667,-120.8
Sulphur Mountain,,2727,34.41666667,-119.2
Indian Benchmark,,2384,36.640577,-120.726883
Cima Hill,,1355,36.65,-120.7
Panoche Mountain,,2091,36.73333333,-120.7666667
Santa Rita Peak,,5165,36.35,-120.6
Black Mountain,,3760,37.33333333,-121.4166667
Dibblee Hill,,107,34.4,-119.7
Basalt Hill,,1707,37.01666667,-121.0833333
Christmas Hill,,322,37,-121.5833333
Crocker Benchmark,,3957,35.25,-119.7166667
Benchmark 775,,775,34.45,-119.6833333
Penasco Rock,,2380,36.008265,-120.414078
Yeguas Mountain,Twissel Benchmark,2988,35.487494,-120.01813
Garza Peak,,2780,35.932335,-120.199952
Johnson Peak,,2658,35.800088,-120.154443
Twin Peaks North,,2682,36.937312,-121.155234
San Joaquin Peak,,2918,36.904647,-121.26212
Scout Peak,,2620,36.479747,-121.199612
Cerro Romualdo,,1307,35.314135,-120.726973
Kickham Peak,,2320,37.047459,-121.384778
Mount Misery,,2502,37.277647,-121.706011
Cedar Mountain,,3675,37.55997,-121.606256
Sherman Peak,,3857,36.202047,-120.562344
Loma Atravesada,,4220,36.35693,-120.535166
Wright Mountain,,4566,36.327312,-120.537344
Antimony Peak,,3297,36.930268,-121.233354
Mount Ararat,,3274,36.96747,-121.178766
Anderson Peak,,4099,36.180923,-121.643009
Mine Mountain,,3670,35.968873,-120.43278
Mustang Peak,,3612,35.974607,-120.413313
