Name,OtherName,Elevation,Latitude,Longitude
Kuna Peak,,13002,37.812906,-119.208275
Petit Griffon,,13040,37.391407,-118.788394
Mount Madonna,,1897,37.012239,-121.704982
Mount Johnson,,3465,36.610947,-121.314714
Mount Defiance,,2657,36.467003,-121.172532
North Chalone Peak,,3304,36.447637,-121.195678
South Chalone Peak,,3269,36.436847,-121.185864
Miller Mountain,,4341,36.319057,-121.645681
Junipero Serra Peak,,5862,36.145661,-121.419117
Cone Peak,,5155,36.052042,-121.496345
Williams Hill,,2780,35.951745,-121.001837
Silver Peak,,3590,35.847925,-121.358994
Pine Mountain,,3594,35.690148,-121.094601
Palo Escrito Peak,,4467,36.405236,-121.491968
Discovery Peak,Valpe Ridge-Rose Flat,3840,37.5121,-121.699374
Boardman North,Alsan Peak,3626,37.489685,-121.469336
Mount Boardman,,3618,37.481178,-121.471868
Eylar Mountain,,4089,37.477676,-121.556072
Mount Hamilton,,4213,37.341697,-121.64312
Copernicus Peak,,4360,37.34675,-121.63008
Mount Stakes,,3804,37.32253,-121.408568
Crevison Peak,,2103,37.191014,-121.189092
Mariposa Peak,,3448,36.957135,-121.211573
Laveaga Peak,,3801,36.890467,-121.17758
Potrero Peak,,3742,36.856579,-121.150079
Ortigalita Peak,,3304,36.794498,-120.923246
Sugarloaf,,2840,36.709717,-121.118213
Ciervo Mountain,,3391,36.473486,-120.579929
Pine Mountain,,3814,36.454448,-120.919309
San Carlos Peak,,4845,36.391414,-120.656932
San Benito Mountain,,5241,36.36967,-120.644609
Hepsedam Peak,,4487,36.314683,-120.824705
Black Mountain,,3640,36.30468,-120.403338
Smith Mountain,,3947,36.078951,-120.595969
Castle Mountain,,4343,35.939043,-120.340382
Table Mountain,King Benchmark,3473,35.906,-120.275967
Orchard Peak,,3125,35.738196,-120.133848
Lopez Mountain,,2868,35.301392,-120.578535
Machesna Mountain,,4063,35.278717,-120.230968
Hi Mountain,,3198,35.259932,-120.425281
Garcia Mountain,,3171,35.248652,-120.30964
Saddle Peak,,1819,35.222312,-120.793077
Pine Ridge,,3200,35.208233,-120.28091
Caliente Mountain,,5106,35.036309,-119.760252
Freeborn Mountain,,3312,35.285271,-120.054174
Timber Peak,,4764,35.014384,-120.013307
Tepusquet Peak,,3253,34.910118,-120.186637
Peak Mountain,,5843,34.90209,-119.858722
McPherson Peak,,5749,34.888614,-119.813274
Fox Mountain,,5167,34.813618,-119.60008
Samon Peak,,6227,34.734853,-119.646072
San Rafael Mountain,,6593,34.710922,-119.814015
McKinley Mountain,,6200,34.702399,-119.845413
Big Pine Mountain,,6800,34.697288,-119.654347
Big Pine Mountain-West Peak,,6490,34.695654,-119.677373
Madulce Peak,,6536,34.690957,-119.591151
Santa Cruz Peak,,5570,34.66917,-119.811809
Tranquillon Mountain,,2159,34.582795,-120.561371
Santa Ynez Peak,,4298,34.526966,-119.978554
Divide Peak,,4707,34.47685,-119.444461
Eagle Rest Peak,,6005,34.907428,-119.133857
Brush Mountain,,7048,34.884932,-119.224965
Antimony Peak,,6848,34.877077,-119.112268
San Emigdio Mountain,,7492,34.873269,-119.178899
Tecuya Mountain,,7160,34.842489,-118.981718
Cerro Noroeste,,8280,34.830964,-119.203515
Grouse Mountain,,8582,34.814868,-119.183088
Sawmill Mountain,,8818,34.813361,-119.167286
Mount Pinos,,8831,34.812831,-119.145413
Frazier Mountain,,8000,34.775012,-118.969141
Cuyama Peak,,5880,34.754082,-119.475786
Lizard Head,,5320,34.69911,-119.479853
Hildreth Peak,,5065,34.600229,-119.551812
Ortega Hill,,5317,34.573804,-119.355258
Ortega Peak,,5854,34.566458,-119.332464
Monte Arido-East Slope,,5800,34.53876,-119.462796
Monte Arido,,6010,34.539345,-119.466778
Old Man Mountain,,5538,34.516964,-119.453297
Lockwood Peak,Lockwood Point,6261,34.709578,-119.069877
San Guillermo Mountain,,6606,34.695391,-119.147894
Reyes Peak,,7514,34.630915,-119.281622
Haddock Mountain,,7431,34.623509,-119.240723
Thorn Point,,6920,34.606425,-119.127655
Chief Peak,,5560,34.510498,-119.167995
Alamo Mountain,,7367,34.667725,-118.961154
Black Mountain,,6202,34.654217,-118.861747
Snowy Peak,,6532,34.649411,-118.888798
Sewart Mountain,,6841,34.640643,-118.907067
McDonald Peak,,6870,34.633429,-118.940549
White Mountain,,6250,34.631297,-118.847935
San Rafael Peak,,6640,34.623888,-119.00185
Cobblestone Mountain,,6733,34.608939,-118.867849
Hines Peak,,6716,34.510785,-119.075593
Oat Mountain,,3747,34.329849,-118.601031
Liebre Mountain,,5760,34.716612,-118.664737
Burnt Peak,,5788,34.68292,-118.576855
Sawtooth Mountain,,5200,34.660794,-118.552318
Old Mount Emma,,5063,34.476073,-118.052612
Mount Emma,,5273,34.460596,-118.069142
Cole Point,,5604,34.421672,-118.072064
Bare Mountain,,6388,34.398256,-117.991848
Pleasant View Ridge,UTM 165055,7983,34.390009,-117.90935
Pallett Mountain,,7760,34.385761,-117.885936
Will Thrall Peak,,7845,34.384496,-117.902622
Pacifico Mountain,,7124,34.381937,-118.034524
Mount Gleason,,6520,34.376513,-118.177494
Granite Mountain,,6600,34.37139,-118.07111
Winston Ridge,,7003,34.371299,-117.936004
Winston Peak,,7502,34.358509,-117.935784
Rabbit Peak,,5307,34.357102,-118.095165
Mount Akawie,,7283,34.352723,-117.91701
Round Top,,6316,34.352687,-118.067894
Mount Hillyer,UTM 62007,6200,34.345451,-118.020658
Iron Mountain,,5636,34.348797,-118.22917
Kratka Ridge,,7515,34.346827,-117.899299
Iron Mountain,,5040,34.339044,-118.091305
Waterman Mountain,,8038,34.336505,-117.936817
Condor Peak,,5440,34.325408,-118.219526
Twin Peaks,,7761,34.316038,-117.926505
Fox Mountain,,5033,34.314371,-118.199079
Mount Mooney,,5840,34.305845,-118.007501
Vetter Mountain,,5908,34.297141,-118.02864
Josephine Peak,,5558,34.285605,-118.153859
Strawberry Peak,,6164,34.283583,-118.120517
Barley Flats,,5600,34.276115,-118.072274
Mount Sally,,5408,34.27235,-118.014381
Mount Lawlor,,5957,34.270793,-118.104011
Mount Lukens,,5074,34.269035,-118.238961
Mount Deception,,5796,34.248989,-118.114658
Mount Disappointment,,5960,34.246585,-118.10499
San Gabriel Peak,,6161,34.243312,-118.098617
Mount Markham,,5742,34.236829,-118.099182
Occidental Peak,,5732,34.235023,-118.083699
Mount Lowe,,5603,34.232068,-118.106206
Mount Wilson,,5710,34.223722,-118.061675
Mount Harvard,,5441,34.21324,-118.062377
Monrovia Peak,,5409,34.213282,-117.969666
Mount Hollywood,,1625,34.128139,-118.301182
San Vicente Mountain,,1961,34.128667,-118.512833
Sandstone Peak,,3111,34.120429,-118.931994
Topanga Lookout,,2469,34.092103,-118.636069
Castro Peak,,2824,34.085709,-118.785842
Green Mountain,,817,34.039551,-120.386506
San Miguel Hill,,831,34.032937,-120.36424
Devils Peak,Mount Diablo,2450,34.029201,-119.784428
Sierra Blanca,,1523,33.980239,-119.820632
Black Mountain,,1298,33.978753,-120.07885
Soledad Peak,,1589,33.945307,-120.117635
Signal Hill,,634,33.472047,-119.041216
Mount Orizaba,,2125,33.375136,-118.419599
Pip-squeak Spire,,13268,37.375318,-118.773513
Turner Mountain,,6893,40.298903,-121.616929
Barkley Mountain,,4473,40.161011,-121.689913
Barkley Mountain-West Slope,,4320,40.160264,-121.697961
Colby Mountain,,6001,40.148887,-121.525225
Butte County High Point,,7120,40.125857,-121.404824
Mount Pleasant,,7120,39.962786,-121.172491
Bald Eagle Mountain,,7183,39.938193,-121.235856
Kettle Rock,,7820,40.140971,-120.725767
Mount Ingalls,,8372,39.994141,-120.62745
Dixie Mountain,,8327,39.938864,-120.285348
Smith Peak,,7693,39.867357,-120.530538
Thompson Peak,,7795,40.261403,-120.55817
Mount Washington,,7369,39.725547,-120.713145
Mount Elwell,,7818,39.70827,-120.689159
Bunker Hill,,6967,39.665788,-120.834173
Yuba County High Point,Sugar Pine Peak,4825,39.607643,-121.015194
Mount Lola-North Ridge Peak,Mount Lulu,8844,39.45003,-120.363919
Mount Lola,,9148,39.432952,-120.365117
Black Buttes,,8028,39.395278,-120.557641
Castle Peak,,9103,39.365498,-120.349208
Andesite Peak,,8219,39.351113,-120.366762
Andesite Ridge-South Peak,,7605,39.342418,-120.351806
Beckwourth Peak,,7252,39.773439,-120.432409
Babbitt Peak,,8760,39.602544,-120.105706
Sardine Peak,,8135,39.540205,-120.187861
Crows Nest,,7896,39.297067,-120.350158
Mount Disney,,7953,39.294652,-120.340815
Anderson Peak,,8683,39.25911,-120.297177
Mount Pluto,,8617,39.241524,-120.140154
Needle Peak,,8971,39.200557,-120.301041
Granite Chief,,9006,39.198239,-120.287064
Squaw Peak,,8885,39.180667,-120.269674
Twin Peaks,,8878,39.112419,-120.231647
Barker Peak,,8166,39.07949,-120.239043
Lost Corner Mountain,,8261,39.013804,-120.204319
Tells Peak,,8872,38.9599,-120.254641
Dicks Peak,,9974,38.900614,-120.151105
Pyramid Peak,,9983,38.845106,-120.158081
Mount Rose,,10776,39.343715,-119.917874
Snow Valley Peak,,9214,39.15396,-119.88323
East Peak,,9591,38.94251,-119.907349
Monument Peak,,10067,38.922804,-119.897655
Freel Peak,,10881,38.857499,-119.900095
Hawkins Peak,,10024,38.738566,-119.872452
Thunder Mountain,,9410,38.676733,-120.08537
Winnemucca Lake Southeast,,9800,38.663872,-119.98569
Round Top,,10381,38.663609,-120.000647
Carpenter Benchmark,,828,38.649206,-121.099632
Raymond Peak,,10014,38.603771,-119.833341
Mokelumne Peak,,9334,38.53815,-120.094455
Highland Peak,,10936,38.543691,-119.755528
Mount Reba,,8755,38.507759,-120.028814
Corral Hollow Hill,,8170,38.477945,-120.073082
Sonora Peak,,11459,38.35385,-119.6355
Blue Mountain,,6071,38.342103,-120.364973
Leavitt Peak,,11569,38.286182,-119.651249
Granite Dome,,10320,38.21535,-119.746069
Hells Mountain,,6998,38.073322,-119.916833
Rickey Peak,,10126,38.263691,-119.38123
Eagle Peak,,11847,38.179872,-119.408581
Tower Peak,,11755,38.144524,-119.547713
Crown Point,,11346,38.110985,-119.457565
Wheeler Peak,,8990,38.100387,-119.731943
Matterhorn Peak,,12279,38.093039,-119.3817
Richardson Peak,,9877,38.083839,-119.692575
Dunderberg Peak,Castle Peak Benchmark,12374,38.064543,-119.274325
Piute Mountain,,10541,38.033521,-119.547978
Excelsior Mountain,,12446,38.024511,-119.305349
Pettit Peak,,10788,37.985764,-119.480509
Mount Conness,,12590,37.966955,-119.32155
Mono Dome,,10622,37.959662,-119.171946
Rancheria Mountain,,8960,37.959112,-119.608069
Lembert Dome,,9450,37.881876,-119.347121
Bald Mountain,,7261,37.855232,-119.790285
Smith Peak,,7751,37.926718,-119.735067
Tuolumne Peak,,10845,37.875184,-119.484771
Mount Hoffmann,,10850,37.846842,-119.510591
Clouds Rest,,9926,37.767833,-119.489277
North Dome,,7542,37.756928,-119.560096
Half Dome,,8840,37.746093,-119.533022
El Capitan,,7569,37.734207,-119.637651
Sentinel Dome,,8122,37.723017,-119.584297
Fairview Dome,,9723,37.871373,-119.403879
Medlicott Dome,,9880,37.856151,-119.4239
Cathedral Peak,,10911,37.847808,-119.405606
Parsons Peak-Northwest Ridge,,12040,37.778175,-119.309488
Parsons Peak,,12147,37.776934,-119.307748
Mount Florence,,12561,37.739821,-119.316064
Mount Dana,,13057,37.899812,-119.22117
Mount Gibbs,,12773,37.877054,-119.21181
Mammoth Peak,,12106,37.855394,-119.263505
Koip Peak,,12962,37.813634,-119.201831
Donohue Peak,,12023,37.775086,-119.230463
Banner Peak,,12936,37.69657,-119.19466
Mount Ritter,,13143,37.689058,-119.199557
Clyde Minaret,,12264,37.660389,-119.173956
Mount Maclure,,12880,37.743589,-119.280453
Mount Lyell,,13114,37.739392,-119.271615
Rodgers Peak,,12978,37.724971,-119.257506
Mount Ansel Adams,,11760,37.697892,-119.281624
Foerster Peak,,12057,37.689947,-119.290819
Long Mountain,,11502,37.667267,-119.295106
Sadler Peak,,10567,37.638684,-119.273182
Gale Peak,,10680,37.567953,-119.387125
Sing Peak,,10520,37.553864,-119.387437
Mount Starr King,,9092,37.70276,-119.517553
Mount Clark,,11522,37.69635,-119.428546
Red Peak,,11699,37.65382,-119.409427
Merced Peak,,11726,37.634897,-119.394567
Triple Divide Peak,,11611,37.631719,-119.370262
Buena Vista Peak,,9709,37.594091,-119.517716
Wawona Dome,,6897,37.556019,-119.613177
Devil Peak,,6989,37.529249,-119.740533
Crow Peak,,6440,37.508593,-119.736021
Shuteye Peak,,8351,37.349457,-119.428206
Long Valley Caldera,,7923,37.720238,-118.88478
Mammoth Mountain,,11030,37.630496,-119.032559
Mount Morrison,,12270,37.561394,-118.858424
Mount Morgan,,12992,37.511345,-118.779858
Red Slate Mountain,,13123,37.507482,-118.869275
Mount Stanford,,12838,37.489458,-118.796467
Red and White Mountain,,12816,37.479673,-118.857323
Balloon Dome,,6879,37.464729,-119.226764
Kaiser Peak,,10310,37.294206,-119.185585
Musick Mountain,,6801,37.169958,-119.30878
Three Sisters,,10612,37.141215,-119.060856
Eagle Peak,,10318,37.088586,-119.016612
Patterson Mountain,,8167,36.974749,-119.056461
Mount Starr,,12840,37.426795,-118.766146
Ruby Peak,,13188,37.408898,-118.782256
Mount Morgan,,13748,37.405236,-118.733265
Broken Finger Peak,,13080,37.404524,-118.716751
Mount Mills,,13451,37.393979,-118.789993
Mount Abbot,,13704,37.386377,-118.784931
Recess Peak,,12813,37.382485,-118.855724
Mount Dade,,13600,37.381963,-118.779495
Mount Gabb,,13741,37.376857,-118.802492
Bear Creek Spire,,13720,37.368012,-118.767505
Mount Hilgard,,13361,37.360516,-118.826788
Bear Creek Spire-South Peak,,13160,37.359726,-118.768452
Mount Julius Caesar,,13200,37.356752,-118.781745
Mount Tom,,13652,37.338479,-118.657008
Feather Peak,,13240,37.325942,-118.778
Royce Peak,,13280,37.318181,-118.77096
Seven Gables,,13080,37.310858,-118.833213
Merriam Peak,,13103,37.308938,-118.765331
Basin Mountain,,13181,37.296894,-118.658368
Gemini,,12880,37.297626,-118.817982
Basin Mountain-Southwest Peak,,13240,37.291245,-118.67248
Mount Humphreys,,13986,37.27058,-118.672935
Mount Humphreys-Southeast Peak,,13360,37.2665,-118.670856
Mount Emerson,,13204,37.242587,-118.654303
Mount Henry,,12196,37.183325,-118.827265
Mount Reinstein,,12586,37.079394,-118.738354
Blackcap Mountain,,11550,37.072055,-118.793566
Pavilion Dome,,11856,37.230636,-118.809155
Mount Goethe,,13264,37.206123,-118.702112
Mount Lamarck,,13417,37.194943,-118.670641
Mount Mendel,,13710,37.174895,-118.682322
Mount Darwin,,13831,37.167128,-118.672471
Picture Peak,,13120,37.150795,-118.64922
Mount Haeckel,,13418,37.151097,-118.661025
Mount Wallace,,13377,37.14691,-118.656797
Mount Thompson,,13494,37.142988,-118.613482
Crumbly Spire,Mount Wallace-South Peak,13240,37.141179,-118.654348
Clyde Spires,,12955,37.140178,-118.648226
Mount Powell,,13364,37.138723,-118.634059
Mount Gilbert,,13106,37.136598,-118.598348
Mount Johnson,,12871,37.128501,-118.586354
Mount Goode,,13085,37.123065,-118.567961
The Hermit,,12328,37.162932,-118.718536
Mount McGee,,12944,37.138907,-118.737952
Mount Huxley,,13086,37.136094,-118.682801
Mount Fiske,,13503,37.136708,-118.667843
Mount Warlow,,13206,37.128502,-118.674625
Mount Solomons,,13034,37.106456,-118.674222
Mount Goddard,,13568,37.103548,-118.71946
Black Giant,,13330,37.102342,-118.6486
Charybdis,,13096,37.086715,-118.668219
Mount McDuffie,,13282,37.073538,-118.643972
Wheel Mountain,,12774,37.046691,-118.629378
Scylla,,12956,37.080103,-118.689724
Spanish Mountain,,10051,36.909093,-118.891464
Obelisk,,9705,36.907947,-118.853793
Finger Peak,,12404,37.029989,-118.730323
Kettle Dome,,9451,36.946981,-118.785871
Tehipite Dome,,7708,36.918776,-118.780776
Tunemah Peak,,11894,36.995382,-118.688268
Burnt Mountain,,10608,36.972247,-118.72851
Mount Agassiz,,13893,37.111931,-118.530694
Temple Crag,,12976,37.109743,-118.491239
Mount Winchell,,13775,37.104597,-118.526186
Mount Gayley,,13510,37.102912,-118.499867
Thunderbolt Peak,,14003,37.097404,-118.517255
Mount Sill,,14153,37.095968,-118.503212
North Palisade,,14242,37.09419,-118.514467
Polemonium Peak,,14080,37.093359,-118.511813
Mount Jepson,,13392,37.088879,-118.495121
Palisade Crest,,13553,37.081488,-118.489618
Norman Clyde Peak,,13855,37.074428,-118.474476
Middle Palisade,,14012,37.07021,-118.469096
The Thumb,,13356,37.071449,-118.446007
Disappointment Peak,,13917,37.067917,-118.4675
Birch Mountain,,13602,37.062766,-118.419014
Mount Bolton Brown,,13491,37.0461,-118.440937
Mount Prater,,13471,37.036763,-118.434671
Split Mountain,South Palisade,14058,37.020903,-118.422392
Vennacher Needle,,12995,36.998843,-118.474092
Cardinal Mountain,,13396,36.99948,-118.412729
Mount Ruskin,,12920,36.978497,-118.473314
Cloudripper,,13525,37.142626,-118.530622
Picture Puzzle Peak,,13280,37.127932,-118.538785
Gendarme Peak,,13252,37.126594,-118.53158
Aperture Peak,,13265,37.118132,-118.530441
Windy Peak,,8867,36.972491,-118.611172
Goodale Mountain,,12730,36.971985,-118.386292
Striped Mountain,,13179,36.965519,-118.403949
Marion Peak,,12719,36.95682,-118.522407
Mount Pinchot,,13494,36.947268,-118.40542
Mount Wynne,,13179,36.937954,-118.403007
Arrow Peak,,12959,36.928381,-118.490966
Colosseum Mountain,,12451,36.907362,-118.366853
Pyramid Peak,,12779,36.906566,-118.462097
Hogback Peak,,11080,36.876504,-118.711581
Mount Baxter,,13136,36.861513,-118.362139
Acrodectes Peak,,13182,36.860694,-118.375231
Wren Peak,,9450,36.838243,-118.792716
Mount Clarence King,,12861,36.833616,-118.446548
Diamond Peak,,13127,36.82634,-118.390288
Mount Mary Austin,,13051,36.815063,-118.362951
Black Mountain,,13291,36.809099,-118.378299
Mount Gardiner,,12907,36.806107,-118.459193
Glacier Monument,,11154,36.798381,-118.505321
Dragon Peak,,12927,36.789856,-118.37578
Mount Rixford,,12887,36.784945,-118.398926
Mount Gould,,13005,36.779954,-118.377976
Sentinel Dome,,9115,36.758857,-118.644779
Mitchell Peak,,10365,36.732248,-118.715123
Big Baldy,,8209,36.671881,-118.882482
Little Baldy,,8044,36.614456,-118.80456
Alta Peak,,11204,36.590563,-118.663388
Blue Mountain,,3204,36.550997,-119.076075
Moro Rock,,6725,36.544162,-118.764908
Ampitheater Dome,Castle Rocks High Point,9081,36.496257,-118.70241
Mount Stewart,,12200,36.569815,-118.555065
Eagle Scout Peak,,12000,36.545773,-118.561896
Mount Eisen,,12160,36.500521,-118.568677
Florence Peak,,12432,36.406147,-118.550838
The Sphinx,,9143,36.771226,-118.550416
Palmer Mountain,,11254,36.747934,-118.569228
North Guard,,13327,36.716628,-118.489935
Mount Brewer,,13570,36.708506,-118.485106
South Guard,,13232,36.693474,-118.483927
Deerhorn Mountain,,13281,36.713077,-118.410387
Mount Stanford,,13973,36.703911,-118.395807
Ericsson Crags,,13123,36.700193,-118.417283
Mount Ericsson,,13583,36.697153,-118.414492
Caltech Peak,,13832,36.688977,-118.39063
Mount Genevra,,13054,36.683374,-118.43431
Mount Jordan,,13343,36.682308,-118.449819
Thunder Mountain,,13517,36.669,-118.475768
Table Mountain,,13632,36.660519,-118.473747
Midway Mountain,,13665,36.643301,-118.48362
Milestone Mountain,,13638,36.634537,-118.484418
Centennial Peak,,13228,36.627616,-118.490225
Kern Point,,12730,36.596706,-118.444757
Triple Divide Peak,,12634,36.592881,-118.530862
Kaweah Queen,,13382,36.554709,-118.508538
Pyramidal Pinnacle,,13665,36.545368,-118.507825
Black Kaweah,,13680,36.545403,-118.515906
Koontz Pinnacle,,13600,36.544412,-118.507132
Red Spur,,13186,36.540648,-118.445213
Red Kaweah,,13720,36.539953,-118.505692
Squaretop,,13517,36.535786,-118.498391
Second Kaweah,,13661,36.533148,-118.493071
Mount Kaweah,,13802,36.526108,-118.478518
University Peak,,13589,36.748078,-118.361916
Mount Bradley,,13264,36.728617,-118.3387
Center Peak,,12730,36.721874,-118.362754
Mount Keith,,13976,36.700058,-118.343481
Junction Peak,,13888,36.691013,-118.366306
Polychrome Peak,,13018,36.672603,-118.334527
Mount Williamson,,14373,36.655936,-118.311094
Mount Tyndall,,14019,36.6556,-118.336968
Mount Tyndall-Southwest Peak,,13540,36.650762,-118.350208
Mount Versteeg,,13471,36.647586,-118.325567
Trojan Peak,,13947,36.642313,-118.315311
Mount Barnard,,13990,36.628369,-118.321564
Mount Barnard-East Peak,,13714,36.626043,-118.310792
Mount Carl Heller,,13225,36.611594,-118.298654
Tunnabora Peak,,13563,36.605085,-118.282265
The Cleaver,,13383,36.597453,-118.27474
Mount Carillon,,13553,36.592408,-118.277916
Mount Morgenson,Mount Russell-West Peak,13927,36.591603,-118.299852
Mount Russell,,14088,36.590085,-118.290796
Mount Hale,,13494,36.588007,-118.314432
Mount Young,,13176,36.581094,-118.327662
Mount Whitney,Fishermans Peak,14495,36.57855,-118.29239
Pinnacle Ridge,,13058,36.574056,-118.281653
Keeler Needle,,14239,36.575543,-118.291573
Mount Muir,,14012,36.564743,-118.291253
Lone Pine Peak,,12944,36.56187,-118.22575
Discovery Pinnacle,,13753,36.558387,-118.290302
Mount Irvine,,13780,36.55585,-118.263565
Mount Hitchcock,,13186,36.554923,-118.311861
Mount McAdie,,13799,36.551787,-118.27629
Mount Mallory,,13845,36.549018,-118.262147
Mount LeConte,,13930,36.541615,-118.25223
Mount Newcomb,,13422,36.540073,-118.293349
Mount Corcoran,,13714,36.538588,-118.2505
The Miter,,12770,36.535055,-118.264671
Mount Chamberlin,,13169,36.533734,-118.311157
Mount Pickering,,13474,36.527241,-118.291282
Mount Langley,,14026,36.523449,-118.239526
Joe Devel Peak,,13327,36.515394,-118.296643
Mount Guyot,,12300,36.508971,-118.362851
Cirque Peak,,12900,36.476939,-118.236958
Case Mountain,,6818,36.411234,-118.803207
Homers Nose,,9023,36.385043,-118.737775
Quinn Peak,,10178,36.334605,-118.589318
Dennison Mountain,,8650,36.318519,-118.746407
Sheep Mountain,,10040,36.308437,-118.625283
Moses Mountain,,9331,36.278582,-118.681038
Maggie Mountain,,10042,36.263844,-118.618614
Hatchet Peak,,3286,36.150671,-118.830072
The Needles,,8254,36.109483,-118.484686
Mule Peak,,8142,36.015943,-118.615261
Templeton Mountain,,9960,36.31477,-118.206779
Kern Peak,,11480,36.308517,-118.287613
Blackrock Mountain,,9635,36.179236,-118.278117
Monache Mountain,,9400,36.205507,-118.19648
Lookout Mountain,,9722,36.057896,-118.375724
Bald Mountain,,9382,36.019725,-118.254008
Sherman Peak,,9909,36.010202,-118.391079
Cannell Peak,,9470,35.86505,-118.361352
Cannell Point,Cannel Benchmark,8314,35.785863,-118.343186
Pilot Knob,,6200,35.72861,-118.212469
Muah Mountain,,11016,36.400517,-118.125226
Olancha Peak,,12123,36.265423,-118.118188
Ball Mountain,,9256,36.063826,-118.094094
Kennedy Peak,,7195,35.985559,-118.118259
Chimney Peak,,7994,35.86646,-118.042571
Owens Peak,,8453,35.738269,-117.997019
Mount Jenkins,,7921,35.708644,-117.992825
Morris Peak,,7215,35.690247,-117.987091
Five Fingers,,5174,35.688804,-117.909406
Tobias Peak,,8284,35.850176,-118.572606
Sunday Peak,,8295,35.782235,-118.58507
Bohna Peak,,6788,35.758347,-118.595773
Split Mountain,,6835,35.751661,-118.482283
Black Mountain,,7438,35.741693,-118.523979
Pine Mountain,,3920,35.562639,-118.76921
Pinyon Peak,,6805,35.682343,-118.089944
Onyx Peak,,5244,35.656925,-118.226652
Scodie Mountain,,7294,35.629443,-118.028214
Skinner Peak,,7120,35.566907,-118.126904
Mayan Peak,,6108,35.464266,-118.19499
Butterbredt Peak,,5997,35.383731,-118.153645
Nicolls Peak,,6070,35.619706,-118.297868
Heald Peak,,6901,35.590934,-118.309623
Bald Eagle Peak,,6181,35.544943,-118.478863
Lightner Peak,,6430,35.529417,-118.562765
Piute Lookout,,8326,35.479945,-118.359497
Breckenridge Mountain,,7560,35.451182,-118.587075
Piute Peak,,8440,35.449339,-118.388318
Sorrell Peak,,7704,35.417604,-118.289069
Cross Mountain,,5203,35.278922,-118.136734
Chuckwalla Mountain,,5029,35.272493,-118.09518
Cache Peak,,6698,35.221803,-118.250235
Bear Mountain,,6920,35.206486,-118.639498
Black Mountain,,5686,35.163222,-118.528719
Tehachapi Mountain,,7960,35.046867,-118.48479
Cummings Mountain,,7760,35.041589,-118.571466
Double Mountain,,7981,35.033254,-118.486726
Grapevine Peak,,4815,34.903037,-118.904484
State Line Peak,,7990,40.029873,-119.979398
Mission Peak,,5627,40.276278,-119.850581
Tule Peak,,8724,39.975924,-119.744207
Tohakum Peak,,8182,40.179387,-119.455121
Trinity Peak,,7337,40.232286,-118.745437
Juniper Mountain,,7474,40.234408,-119.074096
Nightingale Mountains High Point,,6942,40.044848,-119.246253
Freds Mountain,,7188,39.779072,-119.853312
Warm Springs Mountain,,6004,39.795279,-119.766614
Hungry Mountain,,5965,39.751409,-119.789416
Spanish Benchmark,,6161,39.650887,-119.769115
Curnow Range High Point,,6493,39.697277,-119.595966
Virginia Peak,,8366,39.755664,-119.461258
Juniper Peak,,7209,39.79542,-119.183253
Rattler Benchmark,,7337,39.400289,-119.529885
Mount Davidson,,7864,39.308294,-119.663526
Desert Peak,,5365,39.786145,-118.937843
Rocky 2 Benchmark,,5512,39.699424,-118.991147
Lahontan Benchmark,,5377,39.407767,-119.015152
Cleaver Peak,,6711,39.218463,-119.133382
Brown Knob,,6084,39.065266,-118.708778
Buffalo Mountain,,8206,40.222712,-118.129277
West Humboldt Range High Point,,6381,40.11599,-118.335489
Job Peak,,8785,39.583196,-118.235478
Rainbow Mountain,,4760,39.414119,-118.543903
Bunejug Mountains High Point,,4892,39.301059,-118.611501
Lava Benchmark,,4953,39.24639,-118.722927
Alkali Benchmark,,6104,39.210741,-118.537907
Blow Sand Mountains High Point,,5260,39.192407,-118.656527
Sand Springs Range High Point,,7467,39.105377,-118.349649
Mount Augusta,,9966,39.53993,-117.919605
Crown Peak,,6600,39.409333,-118.092463
Fairview Peak,,8303,39.225029,-118.152585
Bell Mountain,,7152,39.163521,-118.085534
Mount Anna,,6908,39.003279,-118.126364
Grayback Mountain,,7500,39.197422,-117.888886
Artesia Benchmark,,6915,39.028987,-119.371381
Mount Siegel,,9451,38.889564,-119.502187
Mount Wilson,,6778,38.850792,-119.220399
Desert Creek Peak,,8958,38.614075,-119.315631
East Sister,,10404,38.523362,-119.290252
Middle Sister-Northeast Ridge,,10560,38.509561,-119.292617
Middle Sister,,10854,38.50794,-119.295327
Mount Patterson,,11673,38.436643,-119.305163
Mount Grant,,11280,38.568409,-118.791119
Powell Mountain,,9527,38.327673,-118.699755
Brawley Peaks,,9520,38.251652,-118.921211
Potato Peak,,10237,38.234565,-119.086855
Mount Biedeman,,8962,38.152566,-119.068138
Glass Mountain,,11160,37.766342,-118.703809
Anchor Benchmark,,9062,38.237663,-118.683114
Anchorite Hills-Gregs Knoll,,8160,38.216018,-118.673189
Anchorite Hills-South Summit,,8810,38.153287,-118.698958
Moho Mountain,,8805,38.27961,-118.259687
Huntoon Benchmark,,8299,38.033873,-118.542134
Buckley Benchmark,,7888,38.682814,-118.550667
Mount Ferguson,,8353,38.657209,-118.160941
Pilot Peak,,9182,38.34301,-117.974093
Boundary Peak,,13140,37.84609,-118.35135
Montgomery Peak,,13441,37.838299,-118.356965
Mount Dubois,,13559,37.783365,-118.343216
White Mountain Peak,,14246,37.634144,-118.255718
Mount Barcroft,,13040,37.582263,-118.248301
Black Mountain,,9083,37.266937,-118.22532
Emigrant Peak,,6789,37.960377,-117.898902
Piper Peak,,9450,37.704288,-117.908942
Waucoba Mountain,,11123,37.021874,-118.007911
Mount Inyo,,10975,36.735229,-117.985686
Keynot Peak,,11101,36.707586,-117.962623
New York Butte,,10668,36.647932,-117.932666
